{"type": "FeatureCollection", "features": [{"geometry": {"type": "Point", "coordinates": [-96.6825899, 40.8059209]}, "type": "Feature", "properties": {"city": "Lincoln", "neighborhood": "Woods Park", "country": "US", "address": "801 S 27th St, Lincoln, NE 68510, USA", "case_no": "B6-112389", "county": "Lancaster County", "state": "NE", "street": "S 27th St", "status_code": 200, "postal": "68510", "housenumber": "801"}, "bbox": [-96.6839388803, 40.8045719197, -96.6812409197, 40.8072698803]}, {"geometry": {"type": "Point", "coordinates": [-96.6650183556, 40.7915926055]}, "type": "Feature", "properties": {"city": "Lincoln", "neighborhood": "40th&A", "country": "US", "case_no": "B4-089529", "county": "Lancaster County", "state": "NE", "street": "South St", "address": "South Street & Normal Boulevard, Lincoln, NE 68506, USA", "postal": "68506"}, "bbox": {"northeast": [40.7929805803, -96.6635969197], "southwest": [40.7902826197, -96.6662948803]}}, {"geometry": {"type": "Point", "coordinates": [-96.6060259092, 40.835243545]}, "type": "Feature", "properties": {"city": "Lincoln", "country": "US", "case_no": "B3-040261", "county": "Lancaster County", "state": "NE", "street": "Leighton Ave", "address": "Leighton Avenue & North 83rd Street, Lincoln, NE 68507, USA", "postal": "68507"}, "bbox": {"northeast": [40.8366379803, -96.6072580197], "southwest": [40.8339400197, -96.6099559803]}}, {"geometry": {"type": "Point", "coordinates": [-96.705611, 40.79921]}, "type": "Feature", "properties": {"city": "Lincoln", "neighborhood": "Everett", "country": "US", "case_no": "B2-046340", "county": "Lancaster County", "state": "NE", "street": "A St", "address": "A Street & South 11th Street, Lincoln, NE 68502, USA", "postal": "68502"}, "bbox": {"northeast": [40.8005579803, -96.7042700197], "southwest": [40.7978600197, -96.7069679803]}}, {"geometry": {"type": "Point", "coordinates": [-96.614011, 40.798993]}, "type": "Feature", "properties": {"city": "Lincoln", "country": "US", "case_no": "B3-039549", "county": "Lancaster County", "state": "NE", "street": "A St", "address": "A Street & South 77th Street, Lincoln, NE 68506, USA", "postal": "68506"}, "bbox": {"northeast": [40.8003549803, -96.6141430197], "southwest": [40.7976570197, -96.6168409803]}}, {"geometry": {"type": "Point", "coordinates": [-96.720392, 40.835637]}, "type": "Feature", "properties": {"city": "Lincoln", "neighborhood": "West Lincoln", "country": "US", "case_no": "B2-024814", "county": "Lancaster County", "state": "NE", "street": "Cornhusker Hwy", "address": "Cornhusker Highway & North 1st Street, Lincoln, NE 68521, USA", "postal": "68521"}, "bbox": {"northeast": [40.8370350803, -96.7189379197], "southwest": [40.8343371197, -96.7216358803]}}, {"geometry": {"type": "Point", "coordinates": [-96.672634, 40.842632]}, "type": "Feature", "properties": {"city": "Lincoln", "neighborhood": "Sunset Acres", "country": "US", "case_no": "B3-065731", "county": "Lancaster County", "state": "NE", "street": "Cornhusker Hwy", "address": "Cornhusker Highway & North 33rd Street, Lincoln, NE 68504, USA", "postal": "68504"}, "bbox": {"northeast": [40.8439902803, -96.6714671197], "southwest": [40.8412923197, -96.6741650803]}}, {"geometry": {"type": "Point", "coordinates": [-96.702626, 40.81474]}, "type": "Feature", "properties": {"city": "Lincoln", "neighborhood": "Downtown", "country": "US", "case_no": "B3-012814", "county": "Lancaster County", "state": "NE", "street": "P St", "address": "P Street & North 13th Street, Lincoln, NE 68508, USA", "postal": "68508"}, "bbox": {"northeast": [40.8160979803, -96.7012350197], "southwest": [40.8134000197, -96.7039329803]}}, {"geometry": {"type": "Point", "coordinates": [-96.715835, 40.802536]}, "type": "Feature", "properties": {"city": "Lincoln", "neighborhood": "South Salt Creek", "country": "US", "case_no": "B3-078926", "county": "Lancaster County", "state": "NE", "street": "D St", "address": "D Street & South 4th Street, Lincoln, NE 68502, USA", "postal": "68502"}, "bbox": {"northeast": [40.8039122803, -96.7144929197], "southwest": [40.8012143197, -96.7171908803]}}, {"geometry": {"type": "Point", "coordinates": [-96.6926052596, 40.8212002777]}, "type": "Feature", "properties": {"city": "Lincoln", "country": "US", "case_no": "B3-096911", "county": "Lancaster County", "state": "NE", "street": "N Antelope Valley Pkwy", "address": "North Antelope Valley Parkway & Vine Street, Lincoln, NE 68503, USA", "postal": "68503"}, "bbox": {"northeast": [40.8223235803, -96.6912091197], "southwest": [40.8196256197, -96.6939070803]}}, {"geometry": {"type": "Point", "coordinates": [-96.7873106, 40.8443718]}, "type": "Feature", "properties": {"city": "Lincoln", "neighborhood": "Arnold Heights", "status_code": 200, "country": "US", "case_no": "NDOR209049844", "county": "Lancaster County", "state": "NE", "street": "NW 48th St", "address": "3110 NW 48th St, Lincoln, NE 68524, USA", "postal": "68524", "housenumber": "3110"}, "bbox": [-96.7886839303, 40.8430308197, -96.7859859697, 40.8457287803]}, {"geometry": {"type": "Point", "coordinates": [-96.7056712031, 40.804858298]}, "type": "Feature", "properties": {"city": "Lincoln", "neighborhood": "Everett", "status_code": 200, "country": "US", "case_no": "B6-054902", "county": "Lancaster County", "state": "NE", "street": "F St", "address": "F St & S 11th St, Lincoln, NE 68508, USA", "postal": "68508"}, "bbox": [-96.7069239803, 40.8034050197, -96.7042260197, 40.8061029803]}, {"geometry": {"type": "Point", "coordinates": [-96.708541, 40.803666]}, "type": "Feature", "properties": {"city": "Lincoln", "neighborhood": "South Salt Creek", "country": "US", "address": "S 9th St & E St, Lincoln, NE 68508, USA", "case_no": "B6-077236", "county": "Lancaster County", "state": "NE", "street": "S 9th St", "status_code": 200, "postal": "68508"}, "bbox": [-96.7098899803, 40.8023170197, -96.7071920197, 40.8050149803]}, {"geometry": {"type": "Point", "coordinates": [-96.698181, 40.815831]}, "type": "Feature", "properties": {"city": "Lincoln", "neighborhood": "Downtown", "country": "US", "case_no": "B4-080902", "county": "Lancaster County", "state": "NE", "street": "N 16th St", "address": "University of Nebraska-Lincoln, North 16th Street & Q Street, Lincoln, NE 68508, USA", "postal": "68508"}, "bbox": {"northeast": [40.8171799803, -96.6968320197], "southwest": [40.8144820197, -96.6995299803]}}, {"geometry": {"type": "Point", "coordinates": [-96.6881751065, 40.7395365426]}, "type": "Feature", "properties": {"city": "Lincoln", "country": "US", "address": "6930 Ridge Rd, Lincoln, NE 68512, USA", "case_no": "NDOR213043141", "county": "Lancaster County", "state": "NE", "street": "Ridge Rd", "status_code": 200, "postal": "68512", "housenumber": "6930"}, "bbox": [-96.6891309803, 40.7385070197, -96.6864330197, 40.7412049803]}, {"geometry": {"type": "Point", "coordinates": [-96.694048, 40.813559]}, "type": "Feature", "properties": {"city": "Lincoln", "neighborhood": "Downtown", "country": "US", "case_no": "B4-067796", "county": "Lancaster County", "state": "NE", "street": "E O St", "address": "East O Street & South Antelope Valley Parkway, Lincoln, NE 68508, USA", "postal": "68508"}, "bbox": {"northeast": [40.8149329803, -96.6925100197], "southwest": [40.8122350197, -96.6952079803]}}, {"geometry": {"type": "Point", "coordinates": [-96.6824000447, 40.8244731073]}, "type": "Feature", "properties": {"city": "Lincoln", "neighborhood": "Clinton", "country": "US", "case_no": "B3-049103", "county": "Lancaster County", "state": "NE", "street": "N 27th St", "address": "North 27th Street & Y Street, Lincoln, NE 68503, USA", "postal": "68503"}, "bbox": {"northeast": [40.8257160803, -96.6809757197], "southwest": [40.8230181197, -96.6836736803]}}, {"geometry": {"type": "Point", "coordinates": [-96.6822324229, 40.8242839624]}, "type": "Feature", "properties": {"city": "Lincoln", "neighborhood": "Clinton", "country": "US", "address": "2698 Y St, Lincoln, NE 68503, USA", "case_no": "B2-066854", "county": "Lancaster County", "state": "NE", "street": "Y St", "status_code": 200, "postal": "68503", "housenumber": "2698"}, "bbox": [-96.6838935303, 40.8230191197, -96.6811955697, 40.8257170803]}, {"geometry": {"type": "Point", "coordinates": [-96.627675, 40.798829]}, "type": "Feature", "properties": {"city": "Lincoln", "country": "US", "address": "A St & Kingston Rd, Lincoln, NE 68506, USA", "case_no": "B6-014057", "county": "Lancaster County", "state": "NE", "street": "A St", "status_code": 200, "postal": "68506"}, "bbox": [-96.6290239803, 40.797480019700004, -96.6263260197, 40.8001779803]}, {"geometry": {"type": "Point", "coordinates": [-96.6248467, 40.8526241]}, "type": "Feature", "properties": {"city": "Lincoln", "neighborhood": "Havelock", "country": "US", "case_no": "B5-061304", "county": "Lancaster County", "state": "NE", "street": "N 70th St", "address": "3950 N 70th St, Lincoln, NE 68507, USA", "postal": "68507", "housenumber": "3950"}, "bbox": {"northeast": [40.8539730803, -96.6235069197], "southwest": [40.8512751197, -96.6262048803]}}, {"geometry": {"type": "Point", "coordinates": [-96.642097, 40.75374]}, "type": "Feature", "properties": {"city": "Lincoln", "status_code": 200, "country": "US", "case_no": "B3-041590", "county": "Lancaster County", "state": "NE", "street": "Old Cheney Rd", "address": "5743 Old Cheney Rd, Lincoln, NE 68516, USA", "postal": "68516", "housenumber": "5743"}, "bbox": [-96.6439334803, 40.7524436197, -96.6412355197, 40.7551415803]}, {"geometry": {"type": "Point", "coordinates": [-96.6984499, 40.797786]}, "type": "Feature", "properties": {"city": "Lincoln", "neighborhood": "Near South", "status_code": 200, "country": "US", "case_no": "NDOR210044524", "county": "Lancaster County", "state": "NE", "street": "Washington St", "address": "1545 Washington St, Lincoln, NE 68502, USA", "postal": "68502", "housenumber": "1545"}, "bbox": [-96.6997988803, 40.7964370197, -96.6971009197, 40.7991349803]}, {"geometry": {"type": "Point", "coordinates": [-96.6728020111, 40.8206056432]}, "type": "Feature", "properties": {"city": "Lincoln", "neighborhood": "Hartley", "status_code": 200, "country": "US", "case_no": "B6-066818", "county": "Lancaster County", "state": "NE", "street": "Vine St", "address": "Vine St & N 33rd St, Lincoln, NE 68503, USA", "postal": "68503"}, "bbox": [-96.6742689803, 40.8193500197, -96.6715710197, 40.8220479803]}, {"geometry": {"type": "Point", "coordinates": [-96.638322, 40.798475]}, "type": "Feature", "properties": {"city": "Lincoln", "status_code": 200, "country": "US", "case_no": "NDOR208049309", "county": "Lancaster County", "state": "NE", "street": "A St", "address": "6001 A St, Lincoln, NE 68510, USA", "postal": "68510", "housenumber": "6001"}, "bbox": [-96.6396709803, 40.7971260197, -96.6369730197, 40.7998239803]}, {"geometry": {"type": "Point", "coordinates": [-96.6834497, 40.823523]}, "type": "Feature", "properties": {"city": "Lincoln", "status_code": 200, "country": "US", "case_no": "NDOR211033529", "county": "Lancaster County", "state": "NE", "street": "N 26th St", "address": "1000-1098 N 26th St, Lincoln, NE 68503, USA", "postal": "68503", "housenumber": "1000-1098"}, "bbox": [-96.6848186803, 40.8225932697, -96.6821207197, 40.8252912303]}, {"geometry": {"type": "Point", "coordinates": [-96.6925581, 40.8209746]}, "type": "Feature", "properties": {"city": "Lincoln", "country": "US", "case_no": "B5-114619", "county": "Lancaster County", "state": "NE", "street": "N Antelope Valley Pkwy", "address": "N Antelope Valley Pkwy & Vine St, Lincoln, NE 68503, USA", "postal": "68503"}, "bbox": {"northeast": [40.8223235803, -96.6912091197], "southwest": [40.8196256197, -96.6939070803]}}, {"geometry": {"type": "Point", "coordinates": [-96.6993401, 40.8208525]}, "type": "Feature", "properties": {"city": "Lincoln", "country": "US", "case_no": "B5-114615", "county": "Lancaster County", "state": "NE", "street": "Vine St", "address": "1500 Vine St, Lincoln, NE 68508, USA", "postal": "68508", "housenumber": "1500"}, "bbox": {"northeast": [40.8221943803, -96.6979911697], "southwest": [40.8194964197, -96.7006891303]}}, {"geometry": {"type": "Point", "coordinates": [-96.7056133, 40.796994]}, "type": "Feature", "properties": {"city": "Lincoln", "neighborhood": "Everett", "status_code": 200, "country": "US", "case_no": "NDOR211029988", "county": "Lancaster County", "state": "NE", "street": "S 11th St", "address": "1600-1610 S 11th St, Lincoln, NE 68502, USA", "postal": "68502", "housenumber": "1600-1610"}, "bbox": [-96.7069827303, 40.7953870197, -96.7042847697, 40.7980849803]}, {"geometry": {"type": "Point", "coordinates": [-96.653814, 40.762793]}, "type": "Feature", "properties": {"city": "Lincoln", "country": "US", "case_no": "B4-067912", "county": "Lancaster County", "state": "NE", "street": "S 48th St", "address": "South 48th Street & Claire Avenue, Lincoln, NE 68516, USA", "postal": "68516"}, "bbox": {"northeast": [40.7638799803, -96.6524609197], "southwest": [40.7611820197, -96.6551588803]}}, {"geometry": {"type": "Point", "coordinates": [-96.706752, 40.80204]}, "type": "Feature", "properties": {"city": "Lincoln", "neighborhood": "Everett", "status_code": 200, "country": "US", "case_no": "NDOR211041831", "county": "Lancaster County", "state": "NE", "street": "S 10th St", "address": "1124 S 10th St, Lincoln, NE 68502, USA", "postal": "68502", "housenumber": "1124"}, "bbox": [-96.7081009803, 40.8006910197, -96.7054030197, 40.8033889803]}, {"geometry": {"type": "Point", "coordinates": [-96.705584, 40.803656]}, "type": "Feature", "properties": {"city": "Lincoln", "neighborhood": "Everett", "status_code": 200, "country": "US", "case_no": "B6-088803", "county": "Lancaster County", "state": "NE", "street": "E St", "address": "E St & S 11th St, Lincoln, NE 68508, USA", "postal": "68508"}, "bbox": [-96.7069329803, 40.8023070197, -96.7042350197, 40.8050049803]}, {"geometry": {"type": "Point", "coordinates": [-96.6825057, 40.772172]}, "type": "Feature", "properties": {"city": "Lincoln", "neighborhood": "Country Club", "status_code": 200, "country": "US", "case_no": "NDOR210032044", "county": "Lancaster County", "state": "NE", "street": "S 27th St", "address": "4100 S 27th St, Lincoln, NE 68502, USA", "postal": "68502", "housenumber": "4100"}, "bbox": [-96.6838726303, 40.7706610197, -96.6811746697, 40.7733589803]}, {"geometry": {"type": "Point", "coordinates": [-96.7055993, 40.799317]}, "type": "Feature", "properties": {"city": "Lincoln", "neighborhood": "Everett", "status_code": 200, "country": "US", "case_no": "NDOR211043692", "county": "Lancaster County", "state": "NE", "street": "S 11th St", "address": "1342-1398 S 11th St, Lincoln, NE 68502, USA", "postal": "68502", "housenumber": "1342-1398"}, "bbox": [-96.7069657303, 40.7981321697, -96.7042677697, 40.8008301303]}, {"geometry": {"type": "Point", "coordinates": [-96.7014278562, 40.7385234076]}, "type": "Feature", "properties": {"city": "Lincoln", "country": "US", "case_no": "B5-095074", "county": "Lancaster County", "state": "NE", "street": "Pine Lake Rd", "address": "Pine Lake Rd & S 14th St, Lincoln, NE 68512, USA", "postal": "68512"}, "bbox": {"northeast": [40.7399074803, -96.7000970197], "southwest": [40.7372095197, -96.7027949803]}}, {"geometry": {"type": "Point", "coordinates": [-96.6855298034, 40.7990619217]}, "type": "Feature", "properties": {"city": "Lincoln", "neighborhood": "Near South", "country": "US", "case_no": "B5-072381", "county": "Lancaster County", "state": "NE", "street": "A St", "address": "A St & S 25th St, Lincoln, NE 68502, USA", "postal": "68502"}, "bbox": {"northeast": [40.8002999803, -96.6840330197], "southwest": [40.7976020197, -96.6867309803]}}, {"geometry": {"type": "Point", "coordinates": [-96.702651, 40.826897]}, "type": "Feature", "properties": {"city": "Lincoln", "neighborhood": "North Bottoms", "country": "US", "case_no": "B5-116045", "county": "Lancaster County", "state": "NE", "street": "New Hampshire St", "address": "1300 New Hampshire St, Lincoln, NE 68508, USA", "postal": "68508", "housenumber": "1300"}, "bbox": {"northeast": [40.8282459803, -96.7013020197], "southwest": [40.8255480197, -96.7039999803]}}, {"geometry": {"type": "Point", "coordinates": [-96.662971, 40.841003]}, "type": "Feature", "properties": {"city": "Lincoln", "neighborhood": "University Place", "status_code": 200, "country": "US", "case_no": "NDOR210030333", "county": "Lancaster County", "state": "NE", "street": "N 41st St", "address": "2845 N 41st St, Lincoln, NE 68504, USA", "postal": "68504", "housenumber": "2845"}, "bbox": [-96.6643199803, 40.8396540197, -96.6616220197, 40.8423519803]}, {"geometry": {"type": "Point", "coordinates": [-96.685136, 40.820759]}, "type": "Feature", "properties": {"city": "Lincoln", "neighborhood": "Hawley", "status_code": 200, "country": "US", "case_no": "B2-095692", "county": "Lancaster County", "state": "NE", "street": "Vine St", "address": "2501-2509 Vine St, Lincoln, NE 68503, USA", "postal": "68503", "housenumber": "2501-2509"}, "bbox": [-96.6862546303, 40.8193653197, -96.6835566697, 40.8220632803]}, {"geometry": {"type": "Point", "coordinates": [-96.672825, 40.802568]}, "type": "Feature", "properties": {"city": "Lincoln", "neighborhood": "Woods Park", "status_code": 200, "country": "US", "case_no": "B2-040476", "county": "Lancaster County", "state": "NE", "street": "D St", "address": "3301 D St, Lincoln, NE 68510, USA", "postal": "68510", "housenumber": "3301"}, "bbox": [-96.6739879803, 40.8010400197, -96.6712900197, 40.8037379803]}, {"geometry": {"type": "Point", "coordinates": [-96.6588677, 40.8487517]}, "type": "Feature", "properties": {"city": "Lincoln", "country": "US", "case_no": "B5-082478", "county": "Lancaster County", "state": "NE", "street": "Cornhusker Hwy", "address": "Cornhusker Hwy & N 44th St, Lincoln, NE 68504, USA", "postal": "68504"}, "bbox": {"northeast": [40.8501006803, -96.6575187197], "southwest": [40.8474027197, -96.6602166803]}}, {"geometry": {"type": "Point", "coordinates": [-96.65374, 40.8426186]}, "type": "Feature", "properties": {"city": "Lincoln", "neighborhood": "University Place", "country": "US", "case_no": "B5-115048", "county": "Lancaster County", "state": "NE", "street": "Adams St", "address": "Adams St & N 48th St, Lincoln, NE 68504, USA", "postal": "68504"}, "bbox": {"northeast": [40.8439675803, -96.6523910197], "southwest": [40.8412696197, -96.6550889803]}}, {"geometry": {"type": "Point", "coordinates": [-96.7517841, 40.7905831]}, "type": "Feature", "properties": {"city": "Lincoln", "neighborhood": "West A", "status_code": 200, "country": "US", "case_no": "B6-091648", "county": "Lancaster County", "state": "NE", "street": "S Coddington Ave", "address": "2323 S Coddington Ave, Lincoln, NE 68522, USA", "postal": "68522", "housenumber": "2323"}, "bbox": [-96.7531330803, 40.7892341197, -96.7504351197, 40.7919320803]}, {"geometry": {"type": "Point", "coordinates": [-96.68512, 40.739538]}, "type": "Feature", "properties": {"city": "Lincoln", "country": "US", "case_no": "B4-092493", "county": "Lancaster County", "state": "NE", "street": "Pine Lake Rd", "address": "Pine Lake Road & South 27th Street, Lincoln, NE 68516, USA", "postal": "68516"}, "bbox": {"northeast": [40.7409874803, -96.6810846197], "southwest": [40.7382895197, -96.6837825803]}}, {"geometry": {"type": "Point", "coordinates": [-96.695341, 40.805814]}, "type": "Feature", "properties": {"city": "Lincoln", "neighborhood": "Downtown", "status_code": 200, "country": "US", "case_no": "B6-086419", "county": "Lancaster County", "state": "NE", "street": "G St", "address": "G St & S 18th St, Lincoln, NE 68508, USA", "postal": "68508"}, "bbox": [-96.6966899803, 40.8044650197, -96.6939920197, 40.8071629803]}, {"geometry": {"type": "Point", "coordinates": [-96.6823195877, 40.8278995919]}, "type": "Feature", "properties": {"city": "Lincoln", "neighborhood": "Clinton", "country": "US", "address": "1489-1499 N 27th St, Lincoln, NE 68503, USA", "case_no": "NDOR212009046", "county": "Lancaster County", "state": "NE", "street": "N 27th St", "status_code": 200, "postal": "68503", "housenumber": "1489-1499"}, "bbox": [-96.6836609803, 40.8266495197, -96.6809630197, 40.8293474803]}, {"geometry": {"type": "Point", "coordinates": [-96.652940012, 40.8483755204]}, "type": "Feature", "properties": {"city": "Lincoln", "neighborhood": "University Place", "country": "US", "address": "4825 Fremont St, Lincoln, NE 68504, USA", "case_no": "NDOR208025061", "county": "Lancaster County", "state": "NE", "street": "Fremont St", "status_code": 200, "postal": "68504", "housenumber": "4825"}, "bbox": [-96.6542569803, 40.8469730197, -96.6515590197, 40.8496709803]}, {"geometry": {"type": "Point", "coordinates": [-96.6304883, 40.8132728]}, "type": "Feature", "properties": {"city": "Lincoln", "status_code": 200, "country": "US", "case_no": "NDOR209009954", "county": "Lancaster County", "state": "NE", "street": "US-34", "address": "6557-6713 O St, Lincoln, NE 68510, USA", "postal": "68510", "housenumber": "6557-6713"}, "bbox": [-96.6311738303, 40.8119296197, -96.6284758697, 40.8146275803]}, {"geometry": {"type": "Point", "coordinates": [-96.698162, 40.820806]}, "type": "Feature", "properties": {"city": "Lincoln", "status_code": 200, "country": "US", "case_no": "NDOR213007116", "county": "Lancaster County", "state": "NE", "street": "N 16th St", "address": "733 N 16th St, Lincoln, NE 68508, USA", "postal": "68508", "housenumber": "733"}, "bbox": [-96.6998919803, 40.8192140197, -96.6971940197, 40.8219119803]}, {"geometry": {"type": "Point", "coordinates": [-96.789718, 40.857992]}, "type": "Feature", "properties": {"city": "Lincoln", "neighborhood": "Arnold Heights", "status_code": 200, "country": "US", "case_no": "B2-087828", "county": "Lancaster County", "state": "NE", "street": "W Superior St", "address": "5021 W Superior St, Lincoln, NE 68524, USA", "postal": "68524", "housenumber": "5021"}, "bbox": [-96.7912063803, 40.8565243197, -96.7885084197, 40.8592222803]}, {"geometry": {"type": "Point", "coordinates": [-96.6593891, 40.7807302]}, "type": "Feature", "properties": {"city": "Lincoln", "country": "US", "address": "S 44th St & High St, Lincoln, NE 68506, USA", "case_no": "B6-080877", "county": "Lancaster County", "state": "NE", "street": "S 44th St", "status_code": 200, "postal": "68506"}, "bbox": [-96.6607380803, 40.7793812197, -96.6580401197, 40.7820791803]}, {"geometry": {"type": "Point", "coordinates": [-96.6729480102, 40.8281298047]}, "type": "Feature", "properties": {"city": "Lincoln", "neighborhood": "Clinton", "country": "US", "case_no": "B2-087482", "county": "Lancaster County", "state": "NE", "street": "Holdrege St", "address": "University of Nebraska-Lincoln, University of Nebraska-Lincoln: East Campus, Holdrege Street & North 33rd Street, Lincoln, NE 68503, USA", "postal": "68503"}, "bbox": {"northeast": [40.8293699803, -96.6715120197], "southwest": [40.8266720197, -96.6742099803]}}, {"geometry": {"type": "Point", "coordinates": [-96.704493, 40.8569758]}, "type": "Feature", "properties": {"city": "Lincoln", "neighborhood": "Belmont", "status_code": 200, "country": "US", "case_no": "NDOR208043157", "county": "Lancaster County", "state": "NE", "street": "Lewis Ave", "address": "4 Lewis Ave, Lincoln, NE 68521, USA", "postal": "68521", "housenumber": "4"}, "bbox": [-96.7058419803, 40.8556268197, -96.7031440197, 40.8583247803]}, {"geometry": {"type": "Point", "coordinates": [-96.6726343886, 40.7685607867]}, "type": "Feature", "properties": {"city": "Lincoln", "country": "US", "address": "3301-3667 Nebraska Hwy, Lincoln, NE 68516, USA", "case_no": "NDOR209054166", "county": "Lancaster County", "state": "NE", "street": "NE-2", "status_code": 200, "postal": "68516", "housenumber": "3301-3667"}, "bbox": [-96.6728872, 40.7659599, -96.6673881, 40.7686893]}, {"geometry": {"type": "Point", "coordinates": [-96.6558678, 40.8135434]}, "type": "Feature", "properties": {"city": "Lincoln", "neighborhood": "Hartley", "status_code": 200, "country": "US", "case_no": "NDOR209031319", "county": "Lancaster County", "state": "NE", "street": "US-34", "address": "4600 O St, Lincoln, NE 68504, USA", "postal": "68504", "housenumber": "4600"}, "bbox": [-96.6573158803, 40.8121821697, -96.6546179197, 40.8148801303]}, {"geometry": {"type": "Point", "coordinates": [-96.646045, 40.836996]}, "type": "Feature", "properties": {"city": "Lincoln", "neighborhood": "University Place", "status_code": 200, "country": "US", "case_no": "NDOR209056237", "county": "Lancaster County", "state": "NE", "street": "Huntington Ave", "address": "5343 Huntington Ave, Lincoln, NE 68504, USA", "postal": "68504", "housenumber": "5343"}, "bbox": [-96.6473939803, 40.8356470197, -96.6446960197, 40.8383449803]}, {"geometry": {"type": "Point", "coordinates": [-96.68304782, 40.813454276]}, "type": "Feature", "properties": {"city": "Lincoln", "neighborhood": "Woods Park", "country": "US", "address": "2631 E O St, Lincoln, NE 68510, USA", "case_no": "NDOR210037861", "county": "Lancaster County", "state": "NE", "street": "E O St", "status_code": 200, "postal": "68510", "housenumber": "2631"}, "bbox": [-96.6842925803, 40.8120284197, -96.6815946197, 40.8147263803]}, {"geometry": {"type": "Point", "coordinates": [-96.6063515816, 40.8209025816]}, "type": "Feature", "properties": {"city": "Lincoln", "neighborhood": "Meadowlane", "country": "US", "address": "8340 Vine St, Lincoln, NE 68505, USA", "case_no": "NDOR208037513", "county": "Lancaster County", "state": "NE", "street": "Vine St", "status_code": 200, "postal": "68505", "housenumber": "8340"}, "bbox": [-96.6076899803, 40.8196180197, -96.6049920197, 40.8223159803]}, {"geometry": {"type": "Point", "coordinates": [-96.670161573, 40.8207063535]}, "type": "Feature", "properties": {"city": "Lincoln", "neighborhood": "Hartley", "country": "US", "address": "792-798 N 35th St, Lincoln, NE 68503, USA", "case_no": "NDOR211027791", "county": "Lancaster County", "state": "NE", "street": "N 35th St", "status_code": 200, "postal": "68503", "housenumber": "792-798"}, "bbox": [-96.6715524803, 40.8194070197, -96.6688545197, 40.8221049803]}, {"geometry": {"type": "Point", "coordinates": [-96.654201, 40.783957]}, "type": "Feature", "properties": {"city": "Lincoln", "status_code": 200, "country": "US", "case_no": "NDOR211027792", "county": "Lancaster County", "state": "NE", "street": "S 48th St", "address": "2837 S 48th St, Lincoln, NE 68506, USA", "postal": "68506", "housenumber": "2837"}, "bbox": [-96.6555499803, 40.7826080197, -96.6528520197, 40.7853059803]}, {"geometry": {"type": "Point", "coordinates": [-96.651493, 40.817108]}, "type": "Feature", "properties": {"city": "Lincoln", "neighborhood": "Culler", "country": "US", "case_no": "B5-116494", "county": "Lancaster County", "state": "NE", "street": "R St", "address": "R St & N 50th St, Lincoln, NE 68504, USA", "postal": "68504"}, "bbox": {"northeast": [40.8184569803, -96.6501440197], "southwest": [40.8157590197, -96.6528419803]}}, {"geometry": {"type": "Point", "coordinates": [-96.701279, 40.822739]}, "type": "Feature", "properties": {"city": "Lincoln", "status_code": 200, "country": "US", "case_no": "B2-078941", "county": "Lancaster County", "state": "NE", "street": "N 14th St", "address": "912 N 14th St, Lincoln, NE 68508, USA", "postal": "68508", "housenumber": "912"}, "bbox": [-96.7026109803, 40.821759019699996, -96.6999130197, 40.8244569803]}, {"geometry": {"type": "Point", "coordinates": [-96.6858352, 40.8571903]}, "type": "Feature", "properties": {"city": "Lincoln", "neighborhood": "Landon's", "country": "US", "case_no": "B5-038870", "county": "Lancaster County", "state": "NE", "street": "Superior St", "address": "Superior Street & North 24th Street, Lincoln, NE 68521, USA", "postal": "68521"}, "bbox": {"northeast": [40.8585392803, -96.6844862197], "southwest": [40.8558413197, -96.6871841803]}}, {"geometry": {"type": "Point", "coordinates": [-96.6966641, 40.7967037]}, "type": "Feature", "properties": {"city": "Lincoln", "neighborhood": "Near South", "status_code": 200, "country": "US", "case_no": "NDOR208037816", "county": "Lancaster County", "state": "NE", "street": "Garfield St", "address": "1701 Garfield St, Lincoln, NE 68502, USA", "postal": "68502", "housenumber": "1701"}, "bbox": [-96.696676, 40.7953645197, -96.693965, 40.7980624803]}, {"geometry": {"type": "Point", "coordinates": [-96.720282, 40.854407]}, "type": "Feature", "properties": {"city": "Lincoln", "neighborhood": "West Lincoln", "country": "US", "case_no": "B4-046240", "county": "Lancaster County", "state": "NE", "street": "N 1st St", "address": "4410 North 1st Street, Lincoln, NE 68521, USA", "postal": "68521", "housenumber": "4410"}, "bbox": {"northeast": [40.8584366303, -96.7184277197], "southwest": [40.8557386697, -96.7211256803]}}, {"geometry": {"type": "Point", "coordinates": [-96.6823067, 40.8057391]}, "type": "Feature", "properties": {"city": "Lincoln", "neighborhood": "Woods Park", "status_code": 200, "country": "US", "case_no": "NDOR211022643", "county": "Lancaster County", "state": "NE", "street": "S 27th St", "address": "824 S 27th St, Lincoln, NE 68510, USA", "postal": "68510", "housenumber": "824"}, "bbox": [-96.6836808303, 40.8039951697, -96.6809828697, 40.8066931303]}, {"geometry": {"type": "Point", "coordinates": [-96.6972401709, 40.7873119059]}, "type": "Feature", "properties": {"city": "Lincoln", "neighborhood": "Irvingdale", "country": "US", "address": "1688 Perkins Blvd, Lincoln, NE 68502, USA", "case_no": "NDOR208040957", "county": "Lancaster County", "state": "NE", "street": "Perkins Blvd", "status_code": 200, "postal": "68502", "housenumber": "1688"}, "bbox": [-96.6985109803, 40.7860790197, -96.6958130197, 40.7887769803]}, {"geometry": {"type": "Point", "coordinates": [-96.7250497864, 40.8136325582]}, "type": "Feature", "properties": {"city": "Lincoln", "country": "US", "address": "500 US-6, Lincoln, NE 68528, USA", "case_no": "NDOR209044359", "county": "Lancaster County", "state": "NE", "street": "US-6", "status_code": 200, "postal": "68528", "housenumber": "500"}, "bbox": [-96.7267726803, 40.8123467197, -96.7240747197, 40.8150446803]}, {"geometry": {"type": "Point", "coordinates": [-96.699969, 40.812463]}, "type": "Feature", "properties": {"city": "Lincoln", "neighborhood": "Downtown", "country": "US", "case_no": "B2-041153", "county": "Lancaster County", "state": "NE", "street": "N St", "address": "N Street & Centennial Mall South, Lincoln, NE 68508, USA", "postal": "68508"}, "bbox": {"northeast": [40.8138359803, -96.6983340197], "southwest": [40.8111380197, -96.7010319803]}}, {"geometry": {"type": "Point", "coordinates": [-96.7058964, 40.8112826]}, "type": "Feature", "properties": {"city": "Lincoln", "neighborhood": "Downtown", "status_code": 200, "country": "US", "case_no": "NDOR211034536", "county": "Lancaster County", "state": "NE", "street": "S 11th St", "address": "301 S 11th St, Lincoln, NE 68508, USA", "postal": "68508", "housenumber": "301"}, "bbox": [-96.7072453803, 40.8099336197, -96.7045474197, 40.8126315803]}, {"geometry": {"type": "Point", "coordinates": [-96.781273, 40.835931]}, "type": "Feature", "properties": {"city": "Lincoln", "country": "US", "case_no": "B4-095405", "county": "Lancaster County", "state": "NE", "street": "W Leighton Ave", "address": "West Leighton Avenue & Northwest 43rd Street, Lincoln, NE 68524, USA", "postal": "68524"}, "bbox": {"northeast": [40.8372830803, -96.7795303197], "southwest": [40.8345851197, -96.7822282803]}}, {"geometry": {"type": "Point", "coordinates": [-96.645467, 40.756615]}, "type": "Feature", "properties": {"city": "Lincoln", "country": "US", "address": "5459-5507 Nebraska Hwy, Lincoln, NE 68516, USA", "case_no": "B3-067543", "county": "Lancaster County", "state": "NE", "street": "NE-2", "status_code": 200, "postal": "68516", "housenumber": "5459-5507"}, "bbox": [-96.6470822803, 40.7553381697, -96.6443843197, 40.7580361303]}, {"geometry": {"type": "Point", "coordinates": [-96.6965467, 40.8216559]}, "type": "Feature", "properties": {"city": "Lincoln", "status_code": 200, "country": "US", "case_no": "NDOR208027209", "county": "Lancaster County", "state": "NE", "street": "N 17th St", "address": "861-889 N 17th St, Lincoln, NE 68508, USA", "postal": "68508", "housenumber": "861-889"}, "bbox": [-96.6978750303, 40.8204391697, -96.6951770697, 40.8231371303]}, {"geometry": {"type": "Point", "coordinates": [-96.670465, 40.798937]}, "type": "Feature", "properties": {"city": "Lincoln", "neighborhood": "40th&A", "country": "US", "case_no": "B4-061463", "county": "Lancaster County", "state": "NE", "street": "A St", "address": "A Street & South 35th Street, Lincoln, NE 68510, USA", "postal": "68510"}, "bbox": {"northeast": [40.8002899803, -96.6690950197], "southwest": [40.7975920197, -96.6717929803]}}, {"geometry": {"type": "Point", "coordinates": [-96.706948, 40.821561]}, "type": "Feature", "properties": {"city": "Lincoln", "status_code": 200, "country": "US", "case_no": "NDOR213015973", "county": "Lancaster County", "state": "NE", "street": "Stadium Dr", "address": "800-888 Stadium Dr, Lincoln, NE 68501, USA", "postal": "68501", "housenumber": "800-888"}, "bbox": [-96.7082988803, 40.8201811697, -96.7056009197, 40.8228791303]}, {"geometry": {"type": "Point", "coordinates": [-96.640366, 40.851741]}, "type": "Feature", "properties": {"city": "Lincoln", "neighborhood": "Havelock", "country": "US", "case_no": "B2-033946", "county": "Lancaster County", "state": "NE", "street": "Touzalin Ave", "address": "Touzalin Avenue & Seward Avenue, Lincoln, NE 68507, USA", "postal": "68507"}, "bbox": {"northeast": [40.8531109803, -96.6388380197], "southwest": [40.8504130197, -96.6415359803]}}, {"geometry": {"type": "Point", "coordinates": [-96.7330839, 40.8355901]}, "type": "Feature", "properties": {"city": "Lincoln", "neighborhood": "West Lincoln", "status_code": 200, "country": "US", "case_no": "NDOR209010865", "county": "Lancaster County", "state": "NE", "street": "NW 8th St", "address": "2300-2330 NW 8th St, Lincoln, NE 68521, USA", "postal": "68521", "housenumber": "2300-2330"}, "bbox": [-96.7344599803, 40.8347371197, -96.7317620197, 40.8374350803]}, {"geometry": {"type": "Point", "coordinates": [-96.6823626, 40.8227616]}, "type": "Feature", "properties": {"city": "Lincoln", "neighborhood": "Hawley", "status_code": 200, "country": "US", "case_no": "NDOR210008963", "county": "Lancaster County", "state": "NE", "street": "N 27th St", "address": "915 N 27th St, Lincoln, NE 68503, USA", "postal": "68503", "housenumber": "915"}, "bbox": [-96.6837039303, 40.8213184697, -96.6810059697, 40.8240164303]}, {"geometry": {"type": "Point", "coordinates": [-96.7011528009, 40.8170219774]}, "type": "Feature", "properties": {"city": "Lincoln", "country": "US", "address": "1401-1409 R St, Lincoln, NE 68508, USA", "case_no": "NDOR210030764", "county": "Lancaster County", "state": "NE", "street": "R St", "status_code": 200, "postal": "68508", "housenumber": "1401-1409"}, "bbox": [-96.7024174803, 40.8155799197, -96.6997195197, 40.8182778803]}, {"geometry": {"type": "Point", "coordinates": [-96.663244, 40.8016428]}, "type": "Feature", "properties": {"city": "Lincoln", "status_code": 200, "country": "US", "case_no": "NDOR210030449", "county": "Lancaster County", "state": "NE", "street": "C St", "address": "4001-4101 C St, Lincoln, NE 68510, USA", "postal": "68510", "housenumber": "4001-4101"}, "bbox": [-96.663271, 40.8003085197, -96.658471, 40.8030064803]}, {"geometry": {"type": "Point", "coordinates": [-96.6443101, 40.758695]}, "type": "Feature", "properties": {"city": "Lincoln", "neighborhood": "Colonial Hills", "status_code": 200, "country": "US", "case_no": "NDOR211031828", "county": "Lancaster County", "state": "NE", "street": "Shady Creek Dr", "address": "Shady Creek Dr, Lincoln, NE 68516, USA", "postal": "68516"}, "bbox": [-96.6456590303, 40.7573459697, -96.6429610697, 40.7600439303]}, {"geometry": {"type": "Point", "coordinates": [-96.6071974342, 40.7816483342]}, "type": "Feature", "properties": {"city": "Lincoln", "neighborhood": "Crown Pointe", "country": "US", "address": "8340 Rockledge Rd, Lincoln, NE 68506, USA", "case_no": "NDOR210046026", "county": "Lancaster County", "state": "NE", "street": "Rockledge Rd", "status_code": 200, "postal": "68506", "housenumber": "8340"}, "bbox": [-96.6085849803, 40.7803110197, -96.6058870197, 40.783008980299996]}, {"geometry": {"type": "Point", "coordinates": [-96.6823877, 40.7920618]}, "type": "Feature", "properties": {"city": "Lincoln", "neighborhood": "Near South", "status_code": 200, "country": "US", "case_no": "NDOR210001820", "county": "Lancaster County", "state": "NE", "street": "S 27th St", "address": "2020-2030 S 27th St, Lincoln, NE 68502, USA", "postal": "68502", "housenumber": "2020-2030"}, "bbox": [-96.6837548303, 40.7908193697, -96.6810568697, 40.7935173303]}, {"geometry": {"type": "Point", "coordinates": [-96.6968255126, 40.8136499189]}, "type": "Feature", "properties": {"city": "Lincoln", "neighborhood": "Downtown", "country": "US", "address": "1631-1699 O St, Lincoln, NE 68508, USA", "case_no": "NDOR211022127", "county": "Lancaster County", "state": "NE", "street": "US-34", "status_code": 200, "postal": "68508", "housenumber": "1631-1699"}, "bbox": [-96.6984572303, 40.8122436197, -96.6957592697, 40.8149415803]}, {"geometry": {"type": "Point", "coordinates": [-96.693571, 40.843474]}, "type": "Feature", "properties": {"city": "Lincoln", "neighborhood": "Belmont", "country": "US", "case_no": "B2-006738", "county": "Lancaster County", "state": "NE", "street": "Knox St", "address": "Knox Street & North 19th Street, Lincoln, NE 68521, USA", "postal": "68521"}, "bbox": {"northeast": [40.8459219803, -96.6922120197], "southwest": [40.8432240197, -96.6949099803]}}, {"geometry": {"type": "Point", "coordinates": [-96.6647769476, 40.7553468208]}, "type": "Feature", "properties": {"city": "Lincoln", "country": "US", "case_no": "B3-038838", "county": "Lancaster County", "state": "NE", "street": "Old Cheney Rd", "address": "3901 Old Cheney Road, Lincoln, NE 68516, USA", "postal": "68516", "housenumber": "3901"}, "bbox": {"northeast": [40.7561628803, -96.6627309197], "southwest": [40.7534649197, -96.6654288803]}}, {"geometry": {"type": "Point", "coordinates": [-96.687782, 40.739856]}, "type": "Feature", "properties": {"city": "Lincoln", "status_code": 200, "country": "US", "case_no": "NDOR209003344", "county": "Lancaster County", "state": "NE", "street": "Ridge Rd", "address": "6930 Ridge Rd, Lincoln, NE 68512, USA", "postal": "68512", "housenumber": "6930"}, "bbox": [-96.6891309803, 40.7385070197, -96.6864330197, 40.7412049803]}, {"geometry": {"type": "Point", "coordinates": [-96.7007483, 40.7382596]}, "type": "Feature", "properties": {"city": "Lincoln", "status_code": 200, "country": "US", "case_no": "NDOR209003348", "county": "Lancaster County", "state": "NE", "street": "Pine Lake Rd", "address": "1401 Pine Lake Rd, Lincoln, NE 68512, USA", "postal": "68512", "housenumber": "1401"}, "bbox": [-96.7020972803, 40.7369106197, -96.6993993197, 40.7396085803]}, {"geometry": {"type": "Point", "coordinates": [-96.68215220904345, 40.82813448042374]}, "type": "Feature", "properties": {"city": "Lincoln", "neighborhood": "Clinton", "country": "US", "case_no": "B5-058795", "county": "Lancaster County", "state": "NE", "street": "Holdrege St", "address": "Holdrege St & N 27th St, Lincoln, NE 68503, USA", "postal": "68503"}, "bbox": {"northeast": [40.8294009803, -96.6808180197], "southwest": [40.8267030197, -96.6835159803]}}, {"geometry": {"type": "Point", "coordinates": [-96.605958, 40.794763]}, "type": "Feature", "properties": {"city": "Lincoln", "country": "US", "case_no": "B4-112515", "county": "Lancaster County", "state": "NE", "street": "S 84th St", "address": "South 84th Street & Norval Road, Lincoln, NE 68520, USA", "postal": "68520"}, "bbox": {"northeast": [40.7961473803, -96.6046766197], "southwest": [40.7934494197, -96.6073745803]}}, {"geometry": {"type": "Point", "coordinates": [-96.621272, 40.820656]}, "type": "Feature", "properties": {"city": "Lincoln", "neighborhood": "Meadowlane", "status_code": 200, "country": "US", "case_no": "NDOR209054091", "county": "Lancaster County", "state": "NE", "street": "Vine St", "address": "7200 Vine St, Lincoln, NE 68505, USA", "postal": "68505", "housenumber": "7200"}, "bbox": [-96.6228493803, 40.8192917697, -96.6201514197, 40.8219897303]}, {"geometry": {"type": "Point", "coordinates": [-96.640062, 40.8486472]}, "type": "Feature", "properties": {"city": "Lincoln", "status_code": 200, "country": "US", "case_no": "NDOR210037720", "county": "Lancaster County", "state": "NE", "street": "Fremont St", "address": "5900 Fremont St, Lincoln, NE 68507, USA", "postal": "68507", "housenumber": "5900"}, "bbox": [-96.6414014803, 40.8472840197, -96.6387035197, 40.8499819803]}, {"geometry": {"type": "Point", "coordinates": [-96.650684, 40.842401]}, "type": "Feature", "properties": {"city": "Lincoln", "neighborhood": "University Place", "status_code": 200, "country": "US", "case_no": "NDOR211047042", "county": "Lancaster County", "state": "NE", "street": "Adams St", "address": "5005 Adams St, Lincoln, NE 68504, USA", "postal": "68504", "housenumber": "5005"}, "bbox": [-96.6520329803, 40.8410520197, -96.6493350197, 40.8437499803]}, {"geometry": {"type": "Point", "coordinates": [-96.682225, 40.813499]}, "type": "Feature", "properties": {"city": "Lincoln", "neighborhood": "Woods Park", "status_code": 200, "country": "US", "case_no": "B3-098706", "county": "Lancaster County", "state": "NE", "street": "N 27th St", "address": "112 N 27th St, Lincoln, NE 68503, USA", "postal": "68503", "housenumber": "112"}, "bbox": [-96.6836075803, 40.8121638197, -96.6809096197, 40.8148617803]}, {"geometry": {"type": "Point", "coordinates": [-96.6283014497, 40.7552805096]}, "type": "Feature", "properties": {"city": "Lincoln", "neighborhood": "Colonial Hills", "country": "US", "address": "6719-6801 Old Cheney Rd, Lincoln, NE 68516, USA", "case_no": "NDOR209029624", "county": "Lancaster County", "state": "NE", "street": "Old Cheney Rd", "status_code": 200, "postal": "68516", "housenumber": "6719-6801"}, "bbox": [-96.6302185303, 40.7538613197, -96.6275205697, 40.7565592803]}, {"geometry": {"type": "Point", "coordinates": [-96.6728735921, 40.79877657]}, "type": "Feature", "properties": {"city": "Lincoln", "neighborhood": "Woods Park", "country": "US", "case_no": "B3-103944", "county": "Lancaster County", "state": "NE", "street": "A St", "address": "A Street & South 33rd Street, Lincoln, NE 68510, USA", "postal": "68510"}, "bbox": {"northeast": [40.8002899803, -96.6715010197], "southwest": [40.7975920197, -96.6741989803]}}, {"geometry": {"type": "Point", "coordinates": [-96.705511, 40.81476]}, "type": "Feature", "properties": {"city": "Lincoln", "neighborhood": "Downtown", "country": "US", "case_no": "B5-038629", "county": "Lancaster County", "state": "NE", "street": "P St", "address": "P Street & North 11th Street, Lincoln, NE 68508, USA", "postal": "68508"}, "bbox": {"northeast": [40.8161089803, -96.7041620197], "southwest": [40.8134110197, -96.7068599803]}}, {"geometry": {"type": "Point", "coordinates": [-96.630457, 40.825894]}, "type": "Feature", "properties": {"city": "Lincoln", "neighborhood": "Bethany", "status_code": 200, "country": "US", "case_no": "B2-107596", "county": "Lancaster County", "state": "NE", "street": "Dudley St", "address": "6601-6699 Dudley St, Lincoln, NE 68505, USA", "postal": "68505", "housenumber": "6601-6699"}, "bbox": [-96.6311717803, 40.8245552697, -96.6284738197, 40.8272532303]}, {"geometry": {"type": "Point", "coordinates": [-96.675264, 40.798842]}, "type": "Feature", "properties": {"city": "Lincoln", "country": "US", "case_no": "B2-050954", "county": "Lancaster County", "state": "NE", "street": "A St", "address": "A Street & Capitol Parkway, Lincoln, NE 68510, USA", "postal": "68510"}, "bbox": {"northeast": [40.8001875803, -96.6740140197], "southwest": [40.7974896197, -96.6767119803]}}, {"geometry": {"type": "Point", "coordinates": [-96.7059147, 40.8371969]}, "type": "Feature", "properties": {"city": "Lincoln", "status_code": 200, "country": "US", "case_no": "NDOR210030022", "county": "Lancaster County", "state": "NE", "street": "US-6", "address": "2438-2456 US-6, Lincoln, NE 68521, USA", "postal": "68521", "housenumber": "2438-2456"}, "bbox": [-96.7072816803, 40.8360031697, -96.7045837197, 40.8387011303]}, {"geometry": {"type": "Point", "coordinates": [-96.700523, 40.839578]}, "type": "Feature", "properties": {"city": "Lincoln", "status_code": 200, "country": "US", "case_no": "B2-083818", "county": "Lancaster County", "state": "NE", "street": "US-6", "address": "1359 Cornhusker Hwy, Lincoln, NE 68521, USA", "postal": "68521", "housenumber": "1359"}, "bbox": [-96.7041049, 40.8374632697, -96.7002, 40.8401612303]}, {"geometry": {"type": "Point", "coordinates": [-96.6538829, 40.7593589]}, "type": "Feature", "properties": {"city": "Lincoln", "status_code": 200, "country": "US", "case_no": "B6-102639", "county": "Lancaster County", "state": "NE", "street": "NE-2", "address": "NE-2 & S 48th St, Lincoln, NE 68516, USA", "postal": "68516"}, "bbox": [-96.6552318803, 40.7580099197, -96.6525339197, 40.760707880300004]}, {"geometry": {"type": "Point", "coordinates": [-96.6059, 40.811867]}, "type": "Feature", "properties": {"city": "Lincoln", "country": "US", "case_no": "B4-049286", "county": "Lancaster County", "state": "NE", "street": "S 84th St", "address": "222 South 84th Street, Lincoln, NE 68510, USA", "postal": "68510", "housenumber": "222"}, "bbox": {"northeast": [40.8127118803, -96.6024529197], "southwest": [40.8100139197, -96.6051508803]}}, {"geometry": {"type": "Point", "coordinates": [-96.6984828878, 40.8205124906]}, "type": "Feature", "properties": {"city": "Lincoln", "country": "US", "address": "733 N 16th St, Lincoln, NE 68508, USA", "case_no": "NDOR210044540", "county": "Lancaster County", "state": "NE", "street": "N 16th St", "status_code": 200, "postal": "68508", "housenumber": "733"}, "bbox": [-96.6998919803, 40.8192140197, -96.6971940197, 40.8219119803]}, {"geometry": {"type": "Point", "coordinates": [-96.6970321054, 40.8137254459]}, "type": "Feature", "properties": {"city": "Lincoln", "neighborhood": "Downtown", "country": "US", "address": "1631-1699 O St, Lincoln, NE 68508, USA", "case_no": "NDOR211041292", "county": "Lancaster County", "state": "NE", "street": "US-34", "status_code": 200, "postal": "68508", "housenumber": "1631-1699"}, "bbox": [-96.6984572303, 40.8122436197, -96.6957592697, 40.8149415803]}, {"geometry": {"type": "Point", "coordinates": [-96.695755, 40.8169043]}, "type": "Feature", "properties": {"city": "Lincoln", "status_code": 200, "country": "US", "case_no": "NDOR210046072", "county": "Lancaster County", "state": "NE", "street": "R St", "address": "1701 R St, Lincoln, NE 68588, USA", "postal": "68588", "housenumber": "1701"}, "bbox": [-96.6975586303, 40.8155676697, -96.6948606697, 40.8182656303]}, {"geometry": {"type": "Point", "coordinates": [-96.7040825, 40.8047632]}, "type": "Feature", "properties": {"city": "Lincoln", "neighborhood": "Everett", "country": "US", "case_no": "B5-096340", "county": "Lancaster County", "state": "NE", "street": "F St", "address": "1200 F St, Lincoln, NE 68508, USA", "postal": "68508", "housenumber": "1200"}, "bbox": {"northeast": [40.8061050803, -96.7027335697], "southwest": [40.8034071197, -96.7054315303]}}, {"geometry": {"type": "Point", "coordinates": [-96.686668, 40.791418]}, "type": "Feature", "properties": {"city": "Lincoln", "neighborhood": "Country Club", "status_code": 200, "country": "US", "case_no": "NDOR212001214", "county": "Lancaster County", "state": "NE", "street": "South St", "address": "2419 South St, Lincoln, NE 68502, USA", "postal": "68502", "housenumber": "2419"}, "bbox": [-96.6880169803, 40.7900690197, -96.6853190197, 40.7927669803]}, {"geometry": {"type": "Point", "coordinates": [-96.6538061, 40.8341363]}, "type": "Feature", "properties": {"city": "Lincoln", "status_code": 200, "country": "US", "case_no": "NDOR208048729", "county": "Lancaster County", "state": "NE", "street": "N 48th St", "address": "2177-2209 N 48th St, Lincoln, NE 68504, USA", "postal": "68504", "housenumber": "2177-2209"}, "bbox": [-96.6551092803, 40.8327597697, -96.6524113197, 40.8354577303]}, {"geometry": {"type": "Point", "coordinates": [-96.65617, 40.791648]}, "type": "Feature", "properties": {"city": "Lincoln", "country": "US", "case_no": "B3-041362", "county": "Lancaster County", "state": "NE", "street": "S Cotner Blvd", "address": "South Cotner Boulevard & Franklin Street, Lincoln, NE 68506, USA", "postal": "68506"}, "bbox": {"northeast": [40.7948159803, -96.6547540197], "southwest": [40.7921180197, -96.6574519803]}}, {"geometry": {"type": "Point", "coordinates": [-96.6800559, 40.8606064]}, "type": "Feature", "properties": {"city": "Lincoln", "country": "US", "case_no": "B3-014254", "county": "Lancaster County", "state": "NE", "street": "North View Drive", "address": "North View Drive & Crossing Drive, Lincoln, NE 68521, USA", "postal": "68521"}, "bbox": {"northeast": [40.8619553803, -96.6787069197], "southwest": [40.8592574197, -96.6814048803]}}, {"geometry": {"type": "Point", "coordinates": [-96.683381, 40.8157485]}, "type": "Feature", "properties": {"city": "Lincoln", "neighborhood": "Hawley", "status_code": 200, "country": "US", "case_no": "NDOR209038917", "county": "Lancaster County", "state": "NE", "street": "Q St", "address": "2601-2699 Q St, Lincoln, NE 68503, USA", "postal": "68503", "housenumber": "2601-2699"}, "bbox": [-96.6844119803, 40.8144125197, -96.6817140197, 40.8171104803]}, {"geometry": {"type": "Point", "coordinates": [-96.6058807143, 40.7552872218]}, "type": "Feature", "properties": {"city": "Lincoln", "status_code": 200, "country": "US", "case_no": "B6-041605", "county": "Lancaster County", "state": "NE", "street": "S 84th St", "address": "S 84th St & Old Cheney Rd, Lincoln, NE 68526, USA", "postal": "68526"}, "bbox": [-96.6073503803, 40.7538201197, -96.6046524197, 40.7565180803]}, {"geometry": {"type": "Point", "coordinates": [-96.6993819, 40.8135882]}, "type": "Feature", "properties": {"city": "Lincoln", "neighborhood": "Downtown", "status_code": 200, "country": "US", "case_no": "NDOR211035552", "county": "Lancaster County", "state": "NE", "street": "US-34", "address": "1501-1551 O St, Lincoln, NE 68508, USA", "postal": "68508", "housenumber": "1501-1551"}, "bbox": [-96.7006392303, 40.8122523197, -96.6979412697, 40.8149502803]}, {"geometry": {"type": "Point", "coordinates": [-96.696832, 40.80028]}, "type": "Feature", "properties": {"city": "Lincoln", "neighborhood": "Near South", "country": "US", "case_no": "B5-066393", "county": "Lancaster County", "state": "NE", "street": "S 17th St", "address": "S 17th St & B St, Lincoln, NE 68502, USA", "postal": "68502"}, "bbox": {"northeast": [40.8016289803, -96.6954830197], "southwest": [40.7989310197, -96.6981809803]}}, {"geometry": {"type": "Point", "coordinates": [-96.6776792, 40.8239137]}, "type": "Feature", "properties": {"city": "Lincoln", "neighborhood": "Clinton", "country": "US", "address": "N 30th St & Apple St, Lincoln, NE 68503, USA", "case_no": "B6-055552", "county": "Lancaster County", "state": "NE", "street": "N 30th St", "status_code": 200, "postal": "68503"}, "bbox": [-96.6790281803, 40.8225647197, -96.6763302197, 40.8252626803]}, {"geometry": {"type": "Point", "coordinates": [-96.650795, 40.755274]}, "type": "Feature", "properties": {"city": "Lincoln", "status_code": 200, "country": "US", "case_no": "B6-106250", "county": "Lancaster County", "state": "NE", "street": "Old Cheney Rd", "address": "Old Cheney Rd & S 50th St, Lincoln, NE 68516, USA", "postal": "68516"}, "bbox": [-96.6521439803, 40.7539250197, -96.6494460197, 40.7566229803]}, {"geometry": {"type": "Point", "coordinates": [-96.6824606321, 40.820861786500004]}, "type": "Feature", "properties": {"city": "Lincoln", "neighborhood": "Hawley", "country": "US", "case_no": "B4-089553", "county": "Lancaster County", "state": "NE", "street": "N 27th St", "address": "North 27th Street & Vine Street, Lincoln, NE 68503, USA", "postal": "68503"}, "bbox": {"northeast": [40.8221419803, -96.6808890197], "southwest": [40.8194440197, -96.6835869803]}}, {"geometry": {"type": "Point", "coordinates": [-96.6548281721, 40.8207759656]}, "type": "Feature", "properties": {"city": "Lincoln", "neighborhood": "East Campus", "country": "US", "address": "4600-4700 Vine St, Lincoln, NE 68503, USA", "case_no": "NDOR209002317", "county": "Lancaster County", "state": "NE", "street": "Vine St", "status_code": 200, "postal": "68503", "housenumber": "4600-4700"}, "bbox": [-96.6561619803, 40.8194570197, -96.6534640197, 40.8221549803]}, {"geometry": {"type": "Point", "coordinates": [-96.6836573, 40.8388911]}, "type": "Feature", "properties": {"city": "Lincoln", "country": "US", "case_no": "B4-057275", "county": "Lancaster County", "state": "NE", "street": "Theresa St", "address": "2545 Theresa Street, Lincoln, NE 68521, USA", "postal": "68521", "housenumber": "2545"}, "bbox": {"northeast": [40.8402400803, -96.6823083197], "southwest": [40.8375421197, -96.6850062803]}}, {"geometry": {"type": "Point", "coordinates": [-96.6815059, 40.8062204]}, "type": "Feature", "properties": {"city": "Lincoln", "neighborhood": "Woods Park", "status_code": 200, "country": "US", "case_no": "NDOR208040963", "county": "Lancaster County", "state": "NE", "street": "Randolph St", "address": "2786 Randolph St, Lincoln, NE 68510, USA", "postal": "68510", "housenumber": "2786"}, "bbox": [-96.6826345803, 40.8048580697, -96.6799366197, 40.8075560303]}, {"geometry": {"type": "Point", "coordinates": [-96.7066492, 40.8092086]}, "type": "Feature", "properties": {"city": "Lincoln", "neighborhood": "Downtown", "status_code": 200, "country": "US", "case_no": "NDOR209044696", "county": "Lancaster County", "state": "NE", "street": "K St", "address": "1001-1099 K St, Lincoln, NE 68508, USA", "postal": "68508", "housenumber": "1001-1099"}, "bbox": [-96.7076514803, 40.8078769197, -96.7049535197, 40.8105748803]}, {"geometry": {"type": "Point", "coordinates": [-96.7086669, 40.7926227]}, "type": "Feature", "properties": {"city": "Lincoln", "neighborhood": "South Salt Creek", "status_code": 200, "country": "US", "case_no": "NDOR211037582", "county": "Lancaster County", "state": "NE", "street": "Plum St", "address": "827-899 Plum St, Lincoln, NE 68502, USA", "postal": "68502", "housenumber": "827-899"}, "bbox": [-96.7107113803, 40.7912929697, -96.7080134197, 40.7939909303]}, {"geometry": {"type": "Point", "coordinates": [-96.7057553907, 40.8053322025]}, "type": "Feature", "properties": {"city": "Lincoln", "neighborhood": "Everett", "country": "US", "address": "833 S 11th St, Lincoln, NE 68508, USA", "case_no": "NDOR211028323", "county": "Lancaster County", "state": "NE", "street": "S 11th St", "status_code": 200, "postal": "68508", "housenumber": "833"}, "bbox": [-96.7071951803, 40.8038554197, -96.7044972197, 40.8065533803]}, {"geometry": {"type": "Point", "coordinates": [-96.6499802105, 40.8195855265]}, "type": "Feature", "properties": {"city": "Lincoln", "neighborhood": "Culler", "country": "US", "address": "5101 Vine St, Lincoln, NE 68504, USA", "case_no": "B6-036506", "county": "Lancaster County", "state": "NE", "street": "Vine St", "status_code": 200, "postal": "68504", "housenumber": "5101"}, "bbox": [-96.6513740803, 40.8182477197, -96.6486761197, 40.8209456803]}, {"geometry": {"type": "Point", "coordinates": [-96.6059012087, 40.8280508435]}, "type": "Feature", "properties": {"city": "Lincoln", "neighborhood": "Sunrise Hills", "country": "US", "address": "8445 Holdrege St, Lincoln, NE 68505, USA", "case_no": "B2-066751", "county": "Lancaster County", "state": "NE", "street": "Holdrege St", "status_code": 200, "postal": "68505", "housenumber": "8445"}, "bbox": [-96.6065983803, 40.8262334197, -96.6039004197, 40.8289313803]}, {"geometry": {"type": "Point", "coordinates": [-96.6844230057, 40.8062408027]}, "type": "Feature", "properties": {"city": "Lincoln", "neighborhood": "Woods Park", "country": "US", "address": "2545 Randolph St, Lincoln, NE 68510, USA", "case_no": "NDOR211022675", "county": "Lancaster County", "state": "NE", "street": "Randolph St", "status_code": 200, "postal": "68510", "housenumber": "2545"}, "bbox": [-96.6857995803, 40.8047644197, -96.6831016197, 40.8074623803]}, {"geometry": {"type": "Point", "coordinates": [-96.696806, 40.786419]}, "type": "Feature", "properties": {"city": "Lincoln", "neighborhood": "Irvingdale", "country": "US", "case_no": "B6-001145", "county": "Lancaster County", "state": "NE", "street": "S 17th St", "address": "S 17th St & Harrison Ave, Lincoln, NE 68502, USA", "postal": "68502"}, "bbox": {"northeast": [40.7877679803, -96.6954570197], "southwest": [40.7850700197, -96.6981549803]}}, {"geometry": {"type": "Point", "coordinates": [-96.70495, 40.805082]}, "type": "Feature", "properties": {"city": "Lincoln", "neighborhood": "Everett", "status_code": 200, "country": "US", "case_no": "NDOR210040134", "county": "Lancaster County", "state": "NE", "street": "F St", "address": "1122 F St, Lincoln, NE 68508, USA", "postal": "68508", "housenumber": "1122"}, "bbox": [-96.7062989803, 40.8037330197, -96.7036010197, 40.8064309803]}, {"geometry": {"type": "Point", "coordinates": [-96.6966573, 40.7967129]}, "type": "Feature", "properties": {"city": "Lincoln", "neighborhood": "Near South", "status_code": 200, "country": "US", "case_no": "NDOR209049836", "county": "Lancaster County", "state": "NE", "street": "S 17th St", "address": "1600 S 17th St, Lincoln, NE 68502, USA", "postal": "68502", "housenumber": "1600"}, "bbox": [-96.6980253303, 40.7953450697, -96.6953273697, 40.7980430303]}, {"geometry": {"type": "Point", "coordinates": [-96.6839711, 40.8570346]}, "type": "Feature", "properties": {"city": "Lincoln", "neighborhood": "Landon's", "status_code": 200, "country": "US", "case_no": "NDOR208027519", "county": "Lancaster County", "state": "NE", "street": "Superior St", "address": "2547 Superior St, Lincoln, NE 68521, USA", "postal": "68521", "housenumber": "2547"}, "bbox": [-96.6852199803, 40.8557013197, -96.6825220197, 40.8583992803]}, {"geometry": {"type": "Point", "coordinates": [-96.7083479411, 40.814663093]}, "type": "Feature", "properties": {"city": "Lincoln", "neighborhood": "Downtown", "country": "US", "case_no": "B5-089556", "county": "Lancaster County", "state": "NE", "street": "N 9th St", "address": "N 9th St & P St, Lincoln, NE 68508, USA", "postal": "68508"}, "bbox": {"northeast": [40.8161059803, -96.7071250197], "southwest": [40.8134080197, -96.7098229803]}}, {"geometry": {"type": "Point", "coordinates": [-96.7013865, 40.796223499999996]}, "type": "Feature", "properties": {"city": "Lincoln", "neighborhood": "Near South", "status_code": 200, "country": "US", "case_no": "B6-106683", "county": "Lancaster County", "state": "NE", "street": "S 14th St", "address": "S 14th St & Sumner St, Lincoln, NE 68502, USA", "postal": "68502"}, "bbox": [-96.7027354803, 40.7948745197, -96.7000375197, 40.7975724803]}, {"geometry": {"type": "Point", "coordinates": [-96.6547733, 40.8135409]}, "type": "Feature", "properties": {"city": "Lincoln", "neighborhood": "Hartley", "status_code": 200, "country": "US", "case_no": "B6-073877", "county": "Lancaster County", "state": "NE", "street": "E O St", "address": "4718 E O St, Lincoln, NE 68510, USA", "postal": "68510", "housenumber": "4718"}, "bbox": [-96.6561222803, 40.8121848197, -96.6534243197, 40.8148827803]}, {"geometry": {"type": "Point", "coordinates": [-96.6947085, 40.8704388]}, "type": "Feature", "properties": {"city": "Lincoln", "status_code": 200, "country": "US", "case_no": "NDOR209047520", "county": "Lancaster County", "state": "NE", "street": "Kennedy Dr", "address": "1821-1827 Kennedy Dr, Lincoln, NE 68521, USA", "postal": "68521", "housenumber": "1821-1827"}, "bbox": [-96.6958961303, 40.8691782697, -96.6931981697, 40.8718762303]}, {"geometry": {"type": "Point", "coordinates": [-96.6588685, 40.8571388]}, "type": "Feature", "properties": {"city": "Lincoln", "neighborhood": "Sunset Acres", "country": "US", "address": "Superior St & N 44th St, Lincoln, NE 68504, USA", "case_no": "B6-073870", "county": "Lancaster County", "state": "NE", "street": "Superior St", "status_code": 200, "postal": "68504"}, "bbox": [-96.6602174803, 40.8557898197, -96.6575195197, 40.8584877803]}, {"geometry": {"type": "Point", "coordinates": [-96.6632968785, 40.8063034895]}, "type": "Feature", "properties": {"city": "Lincoln", "neighborhood": "40th&A", "status_code": 200, "country": "US", "case_no": "B6-118033", "county": "Lancaster County", "state": "NE", "street": "S 40th St", "address": "S 40th St & Randolph St, Lincoln, NE 68510, USA", "postal": "68510"}, "bbox": [-96.6646019803, 40.8048410197, -96.6619040197, 40.8075389803]}, {"geometry": {"type": "Point", "coordinates": [-96.7027636, 40.791766]}, "type": "Feature", "properties": {"city": "Lincoln", "neighborhood": "Irvingdale", "status_code": 200, "country": "US", "case_no": "NDOR210040350", "county": "Lancaster County", "state": "NE", "street": "South St", "address": "1299 South St, Lincoln, NE 68502, USA", "postal": "68502", "housenumber": "1299"}, "bbox": [-96.7040835803, 40.7904276197, -96.7013856197, 40.7931255803]}, {"geometry": {"type": "Point", "coordinates": [-96.706929, 40.826151]}, "type": "Feature", "properties": {"city": "Lincoln", "neighborhood": "North Bottoms", "country": "US", "case_no": "B3-058476", "county": "Lancaster County", "state": "NE", "street": "N 10th St", "address": "North 10th Street & New Hampshire Street, Lincoln, NE 68508, USA", "postal": "68508"}, "bbox": {"northeast": [40.8279849803, -96.7055850197], "southwest": [40.8252870197, -96.7082829803]}}, {"geometry": {"type": "Point", "coordinates": [-96.6534930861, 40.8487167977]}, "type": "Feature", "properties": {"city": "Lincoln", "neighborhood": "University Place", "country": "US", "case_no": "B5-032078", "county": "Lancaster County", "state": "NE", "street": "N 48th St", "address": "North 48th Street & Fremont Street, Lincoln, NE 68504, USA", "postal": "68504"}, "bbox": {"northeast": [40.8499895803, -96.6522730197], "southwest": [40.8472916197, -96.6549709803]}}, {"geometry": {"type": "Point", "coordinates": [-96.6873311, 40.7917195]}, "type": "Feature", "properties": {"city": "Lincoln", "neighborhood": "Near South", "status_code": 200, "country": "US", "case_no": "NDOR210023032", "county": "Lancaster County", "state": "NE", "street": "South St", "address": "2350-2398 South St, Lincoln, NE 68502, USA", "postal": "68502", "housenumber": "2350-2398"}, "bbox": [-96.6888648303, 40.7903557197, -96.6861668697, 40.7930536803]}, {"geometry": {"type": "Point", "coordinates": [-96.653197, 40.84791]}, "type": "Feature", "properties": {"city": "Lincoln", "neighborhood": "University Place", "status_code": 200, "country": "US", "case_no": "NDOR209023212", "county": "Lancaster County", "state": "NE", "street": "N 48th St", "address": "3500 N 48th St, Lincoln, NE 68504, USA", "postal": "68504", "housenumber": "3500"}, "bbox": [-96.6545459803, 40.8465610197, -96.6518480197, 40.8492589803]}, {"geometry": {"type": "Point", "coordinates": [-96.6525598, 40.7989161]}, "type": "Feature", "properties": {"city": "Lincoln", "status_code": 200, "country": "US", "case_no": "NDOR211042330", "county": "Lancaster County", "state": "NE", "street": "A St", "address": "4869-4899 A St, Lincoln, NE 68510, USA", "postal": "68510", "housenumber": "4869-4899"}, "bbox": [-96.6540070303, 40.7975817197, -96.6513090697, 40.8002796803]}, {"geometry": {"type": "Point", "coordinates": [-96.644273263, 40.7629300746]}, "type": "Feature", "properties": {"city": "Lincoln", "neighborhood": "Colonial Hills", "country": "US", "address": "5000-5010 S 56th St, Lincoln, NE 68516, USA", "case_no": "NDOR211044479", "county": "Lancaster County", "state": "NE", "street": "S 56th St", "status_code": 200, "postal": "68516", "housenumber": "5000-5010"}, "bbox": [-96.6456884803, 40.7612958197, -96.6429905197, 40.7639937803]}, {"geometry": {"type": "Point", "coordinates": [-96.6588837, 40.838271]}, "type": "Feature", "properties": {"city": "Lincoln", "neighborhood": "University Place", "status_code": 200, "country": "US", "case_no": "NDOR211000408", "county": "Lancaster County", "state": "NE", "street": "N 44th St", "address": "2501-2599 N 44th St, Lincoln, NE 68504, USA", "postal": "68504", "housenumber": "2501-2599"}, "bbox": [-96.6602129803, 40.8364345197, -96.6575150197, 40.8391324803]}, {"geometry": {"type": "Point", "coordinates": [-96.6728010671, 40.799003999]}, "type": "Feature", "properties": {"city": "Lincoln", "neighborhood": "Woods Park", "country": "US", "case_no": "B3-042103", "county": "Lancaster County", "state": "NE", "street": "A St", "address": "A Street & South 33rd Street, Lincoln, NE 68510, USA", "postal": "68510"}, "bbox": {"northeast": [40.8002899803, -96.6715010197], "southwest": [40.7975920197, -96.6741989803]}}, {"geometry": {"type": "Point", "coordinates": [-96.7084619746, 40.8147277913]}, "type": "Feature", "properties": {"city": "Lincoln", "neighborhood": "Downtown", "country": "US", "case_no": "B5-030562", "county": "Lancaster County", "state": "NE", "street": "N 9th St", "address": "North 9th Street & P Street, Lincoln, NE 68508, USA", "postal": "68508"}, "bbox": {"northeast": [40.8161059803, -96.7071250197], "southwest": [40.8134080197, -96.7098229803]}}, {"geometry": {"type": "Point", "coordinates": [-96.682137, 40.833462]}, "type": "Feature", "properties": {"city": "Lincoln", "neighborhood": "Clinton", "country": "US", "case_no": "B3-050643", "county": "Lancaster County", "state": "NE", "street": "N 27th St", "address": "North 27th Street & Fair Street, Lincoln, NE 68503, USA", "postal": "68503"}, "bbox": {"northeast": [40.8329813803, -96.6808966197], "southwest": [40.8302834197, -96.6835945803]}}, {"geometry": {"type": "Point", "coordinates": [-96.696707, 40.798013]}, "type": "Feature", "properties": {"city": "Lincoln", "neighborhood": "Near South", "country": "US", "case_no": "B2-081321", "county": "Lancaster County", "state": "NE", "street": "S 17th St", "address": "South 17th Street & Washington Street, Lincoln, NE 68502, USA", "postal": "68502"}, "bbox": {"northeast": [40.7993749803, -96.6953090197], "southwest": [40.7966770197, -96.6980069803]}}, {"geometry": {"type": "Point", "coordinates": [-96.631729, 40.8486462]}, "type": "Feature", "properties": {"city": "Lincoln", "status_code": 200, "country": "US", "case_no": "NDOR211036004", "county": "Lancaster County", "state": "NE", "street": "Fremont St", "address": "6498 Fremont St, Lincoln, NE 68507, USA", "postal": "68507", "housenumber": "6498"}, "bbox": [-96.6337369803, 40.8472830197, -96.6310390197, 40.8499809803]}, {"geometry": {"type": "Point", "coordinates": [-96.716078, 40.785527]}, "type": "Feature", "properties": {"city": "Lincoln", "neighborhood": "South Salt Creek", "status_code": 200, "country": "US", "case_no": "B3-005893", "county": "Lancaster County", "state": "NE", "street": "NE-2", "address": "301-375 Van Dorn St, Lincoln, NE 68502, USA", "postal": "68502", "housenumber": "301-375"}, "bbox": [-96.7188402, 40.7845305197, -96.715845, 40.7872284803]}, {"geometry": {"type": "Point", "coordinates": [-96.6824553, 40.808018]}, "type": "Feature", "properties": {"city": "Lincoln", "neighborhood": "Woods Park", "status_code": 200, "country": "US", "case_no": "NDOR209035484", "county": "Lancaster County", "state": "NE", "street": "S 27th St", "address": "601 S 27th St, Lincoln, NE 68510, USA", "postal": "68510", "housenumber": "601"}, "bbox": [-96.6837869803, 40.8062495697, -96.6810890197, 40.8089475303]}, {"geometry": {"type": "Point", "coordinates": [-96.647034, 40.788513]}, "type": "Feature", "properties": {"city": "Lincoln", "status_code": 200, "country": "US", "case_no": "NDOR208041101", "county": "Lancaster County", "state": "NE", "street": "Normal Blvd", "address": "5330 Normal Blvd, Lincoln, NE 68506, USA", "postal": "68506", "housenumber": "5330"}, "bbox": [-96.6483829803, 40.7871640197, -96.6456850197, 40.7898619803]}, {"geometry": {"type": "Point", "coordinates": [-96.6824565633, 40.8024627191]}, "type": "Feature", "properties": {"city": "Lincoln", "neighborhood": "Woods Park", "country": "US", "case_no": "B2-041184", "county": "Lancaster County", "state": "NE", "street": "S 27th St", "address": "South 27th Street & Capitol Parkway, Lincoln, NE 68510, USA", "postal": "68510"}, "bbox": {"northeast": [40.8039659803, -96.6811006197], "southwest": [40.8012680197, -96.6837985803]}}, {"geometry": {"type": "Point", "coordinates": [-96.6248521, 40.8569644]}, "type": "Feature", "properties": {"city": "Lincoln", "status_code": 200, "country": "US", "case_no": "B6-084801", "county": "Lancaster County", "state": "NE", "street": "Havelock Ave", "address": "Havelock Ave & N 70th St, Lincoln, NE 68507, USA", "postal": "68507"}, "bbox": [-96.6262010803, 40.8556154197, -96.6235031197, 40.8583133803]}, {"geometry": {"type": "Point", "coordinates": [-96.6920975, 40.7700108]}, "type": "Feature", "properties": {"city": "Lincoln", "neighborhood": "Indian Village", "country": "US", "case_no": "B4-058969", "county": "Lancaster County", "state": "NE", "street": "NE-2", "address": "Nebraska 2 & South 20th Street, Lincoln, NE 68502, USA", "postal": "68502"}, "bbox": {"northeast": [40.7713597803, -96.6907485197], "southwest": [40.7686618197, -96.6934464803]}}, {"geometry": {"type": "Point", "coordinates": [-96.644477, 40.826852]}, "type": "Feature", "properties": {"city": "Lincoln", "neighborhood": "Culler", "status_code": 200, "country": "US", "case_no": "NDOR211021986", "county": "Lancaster County", "state": "NE", "street": "N 56th St", "address": "1311 N 56th St, Lincoln, NE 68504, USA", "postal": "68504", "housenumber": "1311"}, "bbox": [-96.6458259803, 40.8255030197, -96.6431280197, 40.8282009803]}, {"geometry": {"type": "Point", "coordinates": [-96.693911, 40.812486]}, "type": "Feature", "properties": {"city": "Lincoln", "neighborhood": "Downtown", "status_code": 200, "country": "US", "case_no": "B4-035352", "county": "Lancaster County", "state": "NE", "street": "N St", "address": "1899 N St, Lincoln, NE 68508, USA", "postal": "68508", "housenumber": "1899"}, "bbox": [-96.6953272303, 40.8111590697, -96.6926292697, 40.8138570303]}, {"geometry": {"type": "Point", "coordinates": [-96.702613, 40.811397]}, "type": "Feature", "properties": {"city": "Lincoln", "neighborhood": "Downtown", "country": "US", "address": "S 13th St & M St, Lincoln, NE 68508, USA", "case_no": "B6-053058", "county": "Lancaster County", "state": "NE", "street": "S 13th St", "status_code": 200, "postal": "68508"}, "bbox": [-96.7039619803, 40.8100480197, -96.7012640197, 40.8127459803]}, {"geometry": {"type": "Point", "coordinates": [-96.672721294, 40.8022501498]}, "type": "Feature", "properties": {"city": "Lincoln", "neighborhood": "Woods Park", "country": "US", "address": "3301 D St, Lincoln, NE 68510, USA", "case_no": "NDOR208037114", "county": "Lancaster County", "state": "NE", "street": "D St", "status_code": 200, "postal": "68510", "housenumber": "3301"}, "bbox": [-96.6739879803, 40.8010400197, -96.6712900197, 40.8037379803]}, {"geometry": {"type": "Point", "coordinates": [-96.691093, 40.857232]}, "type": "Feature", "properties": {"city": "Lincoln", "neighborhood": "Landon's", "country": "US", "case_no": "B2-039103", "county": "Lancaster County", "state": "NE", "street": "Superior St", "address": "Superior Street & North 20th Street, Lincoln, NE 68521, USA", "postal": "68521"}, "bbox": {"northeast": [40.8585377803, -96.6897123197], "southwest": [40.8558398197, -96.6924102803]}}, {"geometry": {"type": "Point", "coordinates": [-96.6892602, 40.798967]}, "type": "Feature", "properties": {"city": "Lincoln", "neighborhood": "Near South", "status_code": 200, "country": "US", "case_no": "NDOR210028457", "county": "Lancaster County", "state": "NE", "street": "S 22nd St", "address": "1398 S 22nd St, Lincoln, NE 68502, USA", "postal": "68502", "housenumber": "1398"}, "bbox": [-96.6906249803, 40.7981275197, -96.6879270197, 40.8008254803]}, {"geometry": {"type": "Point", "coordinates": [-96.701585, 40.783514]}, "type": "Feature", "properties": {"city": "Lincoln", "neighborhood": "Indian Village", "country": "US", "case_no": "B3-040182", "county": "Lancaster County", "state": "NE", "street": "S 14th St", "address": "South 14th Street & Otoe Street, Lincoln, NE 68502, USA", "postal": "68502"}, "bbox": {"northeast": [40.7848711803, -96.7002403197], "southwest": [40.7821732197, -96.7029382803]}}, {"geometry": {"type": "Point", "coordinates": [-96.6878171, 40.8205211]}, "type": "Feature", "properties": {"city": "Lincoln", "neighborhood": "Hawley", "status_code": 200, "country": "US", "case_no": "NDOR210028450", "county": "Lancaster County", "state": "NE", "street": "N 23rd St", "address": "760 N 23rd St, Lincoln, NE 68503, USA", "postal": "68503", "housenumber": "760"}, "bbox": [-96.6891660803, 40.8191721197, -96.6864681197, 40.8218700803]}, {"geometry": {"type": "Point", "coordinates": [-96.6967709, 40.812449]}, "type": "Feature", "properties": {"city": "Lincoln", "neighborhood": "Downtown", "status_code": 200, "country": "US", "case_no": "NDOR208045312", "county": "Lancaster County", "state": "NE", "street": "S 17th St", "address": "201-227 S 17th St, Lincoln, NE 68508, USA", "postal": "68508", "housenumber": "201-227"}, "bbox": [-96.6981039803, 40.8105745197, -96.6954060197, 40.8132724803]}, {"geometry": {"type": "Point", "coordinates": [-96.6972305383, 40.7875408677]}, "type": "Feature", "properties": {"city": "Lincoln", "neighborhood": "Irvingdale", "country": "US", "address": "1688 Perkins Blvd, Lincoln, NE 68502, USA", "case_no": "NDOR208045310", "county": "Lancaster County", "state": "NE", "street": "Perkins Blvd", "status_code": 200, "postal": "68502", "housenumber": "1688"}, "bbox": [-96.6985109803, 40.7860790197, -96.6958130197, 40.7887769803]}, {"geometry": {"type": "Point", "coordinates": [-96.6060961, 40.8149051]}, "type": "Feature", "properties": {"city": "Lincoln", "status_code": 200, "country": "US", "case_no": "NDOR208039235", "county": "Lancaster County", "state": "NE", "street": "N 84th St", "address": "189-299 N 84th St, Lincoln, NE 68505, USA", "postal": "68505", "housenumber": "189-299"}, "bbox": [-96.6074285303, 40.8132049197, -96.6047305697, 40.8159028803]}, {"geometry": {"type": "Point", "coordinates": [-96.7084891, 40.810318]}, "type": "Feature", "properties": {"city": "Lincoln", "neighborhood": "South Salt Creek", "country": "US", "case_no": "B5-003845", "county": "Lancaster County", "state": "NE", "street": "S 9th St", "address": "South 9th Street & L Street, Lincoln, NE 68508, USA", "postal": "68508"}, "bbox": {"northeast": [40.811666980300004, -96.7071401197], "southwest": [40.8089690197, -96.7098380803]}}, {"geometry": {"type": "Point", "coordinates": [-96.6540009, 40.839126]}, "type": "Feature", "properties": {"city": "Lincoln", "neighborhood": "University Place", "country": "US", "case_no": "B5-086728", "county": "Lancaster County", "state": "NE", "street": "N 48th St", "address": "2649 N 48th St, Lincoln, NE 68504, USA", "postal": "68504", "housenumber": "2649"}, "bbox": {"northeast": [40.8404749803, -96.6526519197], "southwest": [40.8377770197, -96.6553498803]}}, {"geometry": {"type": "Point", "coordinates": [-96.701104, 40.81359]}, "type": "Feature", "properties": {"city": "Lincoln", "neighborhood": "Downtown", "country": "US", "case_no": "B4-062148", "county": "Lancaster County", "state": "NE", "street": "E O St", "address": "East O Street & North 14th Street, Lincoln, NE 68508, USA", "postal": "68508"}, "bbox": {"northeast": [40.8149579803, -96.6998126197], "southwest": [40.8122600197, -96.7025105803]}}, {"geometry": {"type": "Point", "coordinates": [-96.6668621, 40.7844211]}, "type": "Feature", "properties": {"city": "Lincoln", "country": "US", "address": "Van Dorn St & S 38th St, Lincoln, NE 68506, USA", "case_no": "B6-093266", "county": "Lancaster County", "state": "NE", "street": "Van Dorn St", "status_code": 200, "postal": "68506"}, "bbox": [-96.6682110803, 40.7830721197, -96.6655131197, 40.7857700803]}, {"geometry": {"type": "Point", "coordinates": [-96.6634562, 40.7523161]}, "type": "Feature", "properties": {"city": "Lincoln", "country": "US", "case_no": "B5-106397", "county": "Lancaster County", "state": "NE", "street": "S 40th St", "address": "S 40th St & Duxhall Dr, Lincoln, NE 68516, USA", "postal": "68516"}, "bbox": {"northeast": [40.7536650803, -96.6621072197], "southwest": [40.7509671197, -96.6648051803]}}, {"geometry": {"type": "Point", "coordinates": [-96.7011648, 40.8097679]}, "type": "Feature", "properties": {"city": "Lincoln", "neighborhood": "Downtown", "status_code": 200, "country": "US", "case_no": "NDOR208025037", "county": "Lancaster County", "state": "NE", "street": "S 14th St", "address": "400-498 S 14th St, Lincoln, NE 68508, USA", "postal": "68508", "housenumber": "400-498"}, "bbox": [-96.7025329303, 40.8083880697, -96.6998349697, 40.8110860303]}, {"geometry": {"type": "Point", "coordinates": [-96.718858, 40.802567]}, "type": "Feature", "properties": {"city": "Lincoln", "neighborhood": "South Salt Creek", "country": "US", "case_no": "B3-086894", "county": "Lancaster County", "state": "NE", "street": "D St", "address": "D Street & South 2nd Street, Lincoln, NE 68502, USA", "postal": "68502"}, "bbox": {"northeast": [40.8039321803, -96.7175187197], "southwest": [40.8012342197, -96.7202166803]}}, {"geometry": {"type": "Point", "coordinates": [-96.705961, 40.84293]}, "type": "Feature", "properties": {"city": "Lincoln", "neighborhood": "Belmont", "country": "US", "case_no": "B3-077193", "county": "Lancaster County", "state": "NE", "street": "N 11th St", "address": "North 11th Street & Butler Avenue, Lincoln, NE 68521, USA", "postal": "68521"}, "bbox": {"northeast": [40.8433569803, -96.7045800197], "southwest": [40.8406590197, -96.7072779803]}}, {"geometry": {"type": "Point", "coordinates": [-96.7099773, 40.8550351]}, "type": "Feature", "properties": {"city": "Lincoln", "neighborhood": "Belmont", "status_code": 200, "country": "US", "case_no": "NDOR211034410", "county": "Lancaster County", "state": "NE", "street": "N 7th St", "address": "4400 N 7th St, Lincoln, NE 68521, USA", "postal": "68521", "housenumber": "4400"}, "bbox": [-96.7113262803, 40.8536861197, -96.7086283197, 40.8563840803]}, {"geometry": {"type": "Point", "coordinates": [-96.6553984, 40.777028]}, "type": "Feature", "properties": {"city": "Lincoln", "status_code": 200, "country": "US", "case_no": "NDOR210027116", "county": "Lancaster County", "state": "NE", "street": "S 47th St", "address": "3600-3646 S 47th St, Lincoln, NE 68506, USA", "postal": "68506", "housenumber": "3600-3646"}, "bbox": [-96.6567679303, 40.7754534697, -96.6540699697, 40.7781514303]}, {"geometry": {"type": "Point", "coordinates": [-96.6538382, 40.787339]}, "type": "Feature", "properties": {"city": "Lincoln", "status_code": 200, "country": "US", "case_no": "NDOR210046170", "county": "Lancaster County", "state": "NE", "street": "S 48th St", "address": "2445-2487 S 48th St, Lincoln, NE 68506, USA", "postal": "68506", "housenumber": "2445-2487"}, "bbox": [-96.6551683803, 40.785897469700004, -96.6524704197, 40.7885954303]}, {"geometry": {"type": "Point", "coordinates": [-96.68224, 40.820693]}, "type": "Feature", "properties": {"city": "Lincoln", "neighborhood": "Hawley", "country": "US", "address": "N 27th St & Vine St, Lincoln, NE 68503, USA", "case_no": "B7-018233", "county": "Lancaster County", "state": "NE", "street": "N 27th St", "status_code": 200, "postal": "68503"}, "bbox": [-96.6835889803, 40.8193440197, -96.6808910197, 40.8220419803]}, {"geometry": {"type": "Point", "coordinates": [-96.6537452, 40.8208033]}, "type": "Feature", "properties": {"city": "Lincoln", "neighborhood": "East Campus", "status_code": 200, "country": "US", "case_no": "NDOR209035649", "county": "Lancaster County", "state": "NE", "street": "Vine St", "address": "Vine St, Lincoln, NE 68504, USA", "postal": "68504"}, "bbox": [-96.6550942303, 40.8194543197, -96.6523962697, 40.8221522803]}, {"geometry": {"type": "Point", "coordinates": [-96.6533356, 40.7384864]}, "type": "Feature", "properties": {"city": "Lincoln", "country": "US", "case_no": "B5-048423", "county": "Lancaster County", "state": "NE", "street": "Beaver Creek Ln", "address": "Beaver Creek Lane & Buffalo Creek Road, Lincoln, NE 68516, USA", "postal": "68516"}, "bbox": {"northeast": [40.7398353803, -96.6519866197], "southwest": [40.7371374197, -96.6546845803]}}, {"geometry": {"type": "Point", "coordinates": [-96.672853, 40.827551]}, "type": "Feature", "properties": {"city": "Lincoln", "neighborhood": "Clinton", "country": "US", "case_no": "B3-064234", "county": "Lancaster County", "state": "NE", "street": "Holdrege St", "address": "University of Nebraska-Lincoln, University of Nebraska-Lincoln: East Campus, Holdrege Street & North 33rd Street, Lincoln, NE 68503, USA", "postal": "68503"}, "bbox": {"northeast": [40.8293699803, -96.6715120197], "southwest": [40.8266720197, -96.6742099803]}}, {"geometry": {"type": "Point", "coordinates": [-96.610146, 40.8065767]}, "type": "Feature", "properties": {"city": "Lincoln", "status_code": 200, "country": "US", "case_no": "NDOR211027290", "county": "Lancaster County", "state": "NE", "street": "Sandalwood Dr", "address": "8101 Sandalwood Dr, Lincoln, NE 68510, USA", "postal": "68510", "housenumber": "8101"}, "bbox": [-96.6109928803, 40.8052410197, -96.6082949197, 40.8079389803]}, {"geometry": {"type": "Point", "coordinates": [-96.65411, 40.842558]}, "type": "Feature", "properties": {"city": "Lincoln", "neighborhood": "University Place", "country": "US", "case_no": "B4-043454", "county": "Lancaster County", "state": "NE", "street": "Adams St", "address": "4750 Adams Street, Lincoln, NE 68504, USA", "postal": "68504", "housenumber": "4750"}, "bbox": {"northeast": [40.8439190803, -96.6526255197], "southwest": [40.8412211197, -96.6553234803]}}, {"geometry": {"type": "Point", "coordinates": [-96.6255068763, 40.7975504877]}, "type": "Feature", "properties": {"city": "Lincoln", "country": "US", "address": "1549 S 70th St, Lincoln, NE 68506, USA", "case_no": "NDOR210039040", "county": "Lancaster County", "state": "NE", "street": "S 70th St", "status_code": 200, "postal": "68506", "housenumber": "1549"}, "bbox": [-96.6269215803, 40.7962245197, -96.6242236197, 40.7989224803]}, {"geometry": {"type": "Point", "coordinates": [-96.7041861, 40.8155902]}, "type": "Feature", "properties": {"city": "Lincoln", "neighborhood": "Downtown", "status_code": 200, "country": "US", "case_no": "NDOR212001076", "county": "Lancaster County", "state": "NE", "address": "Hewit Place, Lincoln, NE 68508, USA", "postal": "68508"}, "bbox": [-96.7055350803, 40.8142412197, -96.7028371197, 40.8169391803]}, {"geometry": {"type": "Point", "coordinates": [-96.607662, 40.828022]}, "type": "Feature", "properties": {"city": "Lincoln", "neighborhood": "Meadowlane", "country": "US", "case_no": "B2-020123", "county": "Lancaster County", "state": "NE", "street": "Holdrege St", "address": "8300 Holdrege Street, Lincoln, NE 68505, USA", "postal": "68505", "housenumber": "8300"}, "bbox": {"northeast": [40.8293562803, -96.6062899697], "southwest": [40.8266583197, -96.6089879303]}}, {"geometry": {"type": "Point", "coordinates": [-96.672809, 40.817084]}, "type": "Feature", "properties": {"city": "Lincoln", "neighborhood": "Hartley", "country": "US", "case_no": "B2-022418", "county": "Lancaster County", "state": "NE", "street": "N 33rd St", "address": "North 33rd Street & Q Street, Lincoln, NE 68503, USA", "postal": "68503"}, "bbox": {"northeast": [40.8168769803, -96.6714880197], "southwest": [40.8141790197, -96.6741859803]}}, {"geometry": {"type": "Point", "coordinates": [-96.682414, 40.797915]}, "type": "Feature", "properties": {"city": "Lincoln", "neighborhood": "Antelope Park", "status_code": 200, "country": "US", "case_no": "B2-103406", "county": "Lancaster County", "state": "NE", "street": "S 27th St", "address": "1500 S 27th St, Lincoln, NE 68502, USA", "postal": "68502", "housenumber": "1500"}, "bbox": [-96.6834648803, 40.7965380197, -96.6807669197, 40.7992359803]}, {"geometry": {"type": "Point", "coordinates": [-96.6538815938, 40.8279226242]}, "type": "Feature", "properties": {"city": "Lincoln", "neighborhood": "East Campus", "country": "US", "address": "4799 Holdrege St, Lincoln, NE 68503, USA", "case_no": "NDOR210036769", "county": "Lancaster County", "state": "NE", "street": "Holdrege St", "status_code": 200, "postal": "68503", "housenumber": "4799"}, "bbox": [-96.6551593803, 40.8266229197, -96.6524614197, 40.8293208803]}, {"geometry": {"type": "Point", "coordinates": [-96.672856, 40.780208]}, "type": "Feature", "properties": {"city": "Lincoln", "country": "US", "case_no": "B3-022324", "county": "Lancaster County", "state": "NE", "street": "Sheridan Blvd", "address": "Sheridan Boulevard & South 33rd Street, Lincoln, NE 68506, USA", "postal": "68506"}, "bbox": {"northeast": [40.7813952803, -96.6713860197], "southwest": [40.7786973197, -96.6740839803]}}, {"geometry": {"type": "Point", "coordinates": [-96.720915, 40.813682]}, "type": "Feature", "properties": {"city": "Lincoln", "status_code": 200, "country": "US", "case_no": "B2-056066", "county": "Lancaster County", "state": "NE", "street": "W O St", "address": "162-298 W O St, Lincoln, NE 68528, USA", "postal": "68528", "housenumber": "162-298"}, "bbox": [-96.7229298803, 40.8123230197, -96.7202319197, 40.8150209803]}, {"geometry": {"type": "Point", "coordinates": [-96.6776497, 40.827993]}, "type": "Feature", "properties": {"city": "Lincoln", "neighborhood": "Clinton", "status_code": 200, "country": "US", "case_no": "NDOR208045703", "county": "Lancaster County", "state": "NE", "street": "N 30th St", "address": "1427-1499 N 30th St, Lincoln, NE 68503, USA", "postal": "68503", "housenumber": "1427-1499"}, "bbox": [-96.6789789803, 40.8262005197, -96.6762810197, 40.8288984803]}, {"geometry": {"type": "Point", "coordinates": [-96.6253655, 40.7629061]}, "type": "Feature", "properties": {"city": "Lincoln", "status_code": 200, "country": "US", "case_no": "NDOR209049817", "county": "Lancaster County", "state": "NE", "street": "S 70th St", "address": "4989-5077 S 70th St, Lincoln, NE 68516, USA", "postal": "68516", "housenumber": "4989-5077"}, "bbox": [-96.6266970803, 40.7611446197, -96.6239991197, 40.7638425803]}, {"geometry": {"type": "Point", "coordinates": [-96.653638, 40.84817]}, "type": "Feature", "properties": {"city": "Lincoln", "neighborhood": "University Place", "status_code": 200, "country": "US", "case_no": "NDOR211031862", "county": "Lancaster County", "state": "NE", "street": "N 48th St", "address": "3505-3533 N 48th St, Lincoln, NE 68504, USA", "postal": "68504", "housenumber": "3505-3533"}, "bbox": [-96.6549733803, 40.8466269697, -96.6522754197, 40.8493249303]}, {"geometry": {"type": "Point", "coordinates": [-96.6539001, 40.7581609]}, "type": "Feature", "properties": {"city": "Lincoln", "country": "US", "case_no": "B5-065960", "county": "Lancaster County", "state": "NE", "street": "S 48th St", "address": "5551 S 48th St, Lincoln, NE 68516, USA", "postal": "68516", "housenumber": "5551"}, "bbox": {"northeast": [40.7595100303, -96.6525418697], "southwest": [40.7568120697, -96.6552398303]}}, {"geometry": {"type": "Point", "coordinates": [-96.6967123589, 40.8025927632]}, "type": "Feature", "properties": {"city": "Lincoln", "neighborhood": "Near South", "country": "US", "case_no": "B4-103593", "county": "Lancaster County", "state": "NE", "street": "D St", "address": "D Street & South 18th Street, Lincoln, NE 68502, USA", "postal": "68502"}, "bbox": {"northeast": [40.8038479803, -96.6940180197], "southwest": [40.8011500197, -96.6967159803]}}, {"geometry": {"type": "Point", "coordinates": [-96.653858, 40.757441]}, "type": "Feature", "properties": {"city": "Lincoln", "country": "US", "address": "S 48th St & Briarpark Dr, Lincoln, NE 68516, USA", "case_no": "B6-075066", "county": "Lancaster County", "state": "NE", "street": "S 48th St", "status_code": 200, "postal": "68516"}, "bbox": [-96.6552069803, 40.7560920197, -96.6525090197, 40.7587899803]}, {"geometry": {"type": "Point", "coordinates": [-96.6060767633, 40.7551864388]}, "type": "Feature", "properties": {"city": "Lincoln", "country": "US", "case_no": "B5-041681", "county": "Lancaster County", "state": "NE", "street": "S 84th St", "address": "South 84th Street & Old Cheney Road, Lincoln, NE 68526, USA", "postal": "68526"}, "bbox": {"northeast": [40.7565180803, -96.6046524197], "southwest": [40.7538201197, -96.6073503803]}}, {"geometry": {"type": "Point", "coordinates": [-96.685201, 40.815739]}, "type": "Feature", "properties": {"city": "Lincoln", "neighborhood": "Hawley", "status_code": 200, "country": "US", "case_no": "B2-071448", "county": "Lancaster County", "state": "NE", "street": "N 25th St", "address": "255 N 25th St, Lincoln, NE 68503, USA", "postal": "68503", "housenumber": "255"}, "bbox": [-96.6867959803, 40.8142169197, -96.6840980197, 40.8169148803]}, {"geometry": {"type": "Point", "coordinates": [-96.7071908559, 40.8132427004]}, "type": "Feature", "properties": {"city": "Lincoln", "neighborhood": "Downtown", "country": "US", "address": "117 S 10th St, Lincoln, NE 68508, USA", "case_no": "NDOR209037630", "county": "Lancaster County", "state": "NE", "street": "S 10th St", "status_code": 200, "postal": "68508", "housenumber": "117"}, "bbox": [-96.7085797803, 40.8118262197, -96.7058818197, 40.8145241803]}, {"geometry": {"type": "Point", "coordinates": [-96.6441146, 40.8362371]}, "type": "Feature", "properties": {"city": "Lincoln", "neighborhood": "University Place", "status_code": 200, "country": "US", "case_no": "NDOR210052949", "county": "Lancaster County", "state": "NE", "street": "N 56th St", "address": "2346-2398 N 56th St, Lincoln, NE 68504, USA", "postal": "68504", "housenumber": "2346-2398"}, "bbox": [-96.6454792303, 40.8346784697, -96.6427812697, 40.8373764303]}, {"geometry": {"type": "Point", "coordinates": [-96.711481, 40.81142]}, "type": "Feature", "properties": {"city": "Lincoln", "neighborhood": "South Salt Creek", "country": "US", "case_no": "B4-113596", "county": "Lancaster County", "state": "NE", "street": "M St", "address": "M Street & South 7th Street, Lincoln, NE 68508, USA", "postal": "68508"}, "bbox": {"northeast": [40.8127689803, -96.7101080197], "southwest": [40.8100710197, -96.7128059803]}}, {"geometry": {"type": "Point", "coordinates": [-96.653773, 40.809796]}, "type": "Feature", "properties": {"city": "Lincoln", "neighborhood": "Witherbee", "country": "US", "case_no": "B4-040552", "county": "Lancaster County", "state": "NE", "street": "S 48th St", "address": "South 48th Street & L Street, Lincoln, NE 68510, USA", "postal": "68510"}, "bbox": {"northeast": [40.8111799803, -96.6523570197], "southwest": [40.8084820197, -96.6550549803]}}, {"geometry": {"type": "Point", "coordinates": [-96.6984327851, 40.8204708539]}, "type": "Feature", "properties": {"city": "Lincoln", "country": "US", "address": "733 N 16th St, Lincoln, NE 68508, USA", "case_no": "NDOR210048119", "county": "Lancaster County", "state": "NE", "street": "N 16th St", "status_code": 200, "postal": "68508", "housenumber": "733"}, "bbox": [-96.6998919803, 40.8192140197, -96.6971940197, 40.8219119803]}, {"geometry": {"type": "Point", "coordinates": [-96.738015, 40.872008]}, "type": "Feature", "properties": {"city": "Lincoln", "neighborhood": "Highlands", "country": "US", "case_no": "B3-082069", "county": "Lancaster County", "state": "NE", "street": "NW 12th St", "address": "Northwest 12th Street & West Fletcher Avenue, Lincoln, NE 68521, USA", "postal": "68521"}, "bbox": {"northeast": [40.8734319803, -96.7366346197], "southwest": [40.8707340197, -96.7393325803]}}, {"geometry": {"type": "Point", "coordinates": [-96.68532857505491, 40.81343214120519]}, "type": "Feature", "properties": {"city": "Lincoln", "neighborhood": "Woods Park", "country": "US", "address": "E O St & S 25th St, Lincoln, NE 68510, USA", "case_no": "B6-055850", "county": "Lancaster County", "state": "NE", "street": "E O St", "status_code": 200, "postal": "68510"}, "bbox": [-96.6865357803, 40.8121510197, -96.6838378197, 40.8148489803]}, {"geometry": {"type": "Point", "coordinates": [-96.605858, 40.8065862]}, "type": "Feature", "properties": {"city": "Lincoln", "status_code": 200, "country": "US", "case_no": "NDOR209052238", "county": "Lancaster County", "state": "NE", "street": "Sandalwood Dr", "address": "8401 Sandalwood Dr, Lincoln, NE 68520, USA", "postal": "68520", "housenumber": "8401"}, "bbox": [-96.6070811803, 40.8052524197, -96.6043832197, 40.8079503803]}, {"geometry": {"type": "Point", "coordinates": [-96.6633023, 40.758402]}, "type": "Feature", "properties": {"city": "Lincoln", "country": "US", "case_no": "B5-046273", "county": "Lancaster County", "state": "NE", "street": "S 40th St", "address": "South 40th Street & Wildbriar Lane, Lincoln, NE 68516, USA", "postal": "68516"}, "bbox": {"northeast": [40.7597509803, -96.6619533197], "southwest": [40.7570530197, -96.6646512803]}}, {"geometry": {"type": "Point", "coordinates": [-96.672858, 40.826204]}, "type": "Feature", "properties": {"city": "Lincoln", "neighborhood": "Clinton", "country": "US", "case_no": "B6-004330", "county": "Lancaster County", "state": "NE", "street": "N 33rd St", "address": "N 33rd St & Dudley St, Lincoln, NE 68503, USA", "postal": "68503"}, "bbox": {"northeast": [40.8275529803, -96.6715090197], "southwest": [40.8248550197, -96.6742069803]}}, {"geometry": {"type": "Point", "coordinates": [-96.678151, 40.817103]}, "type": "Feature", "properties": {"city": "Lincoln", "neighborhood": "Hartley", "country": "US", "case_no": "B4-075403", "county": "Lancaster County", "state": "NE", "street": "R St", "address": "R Street & North 30th Street, Lincoln, NE 68503, USA", "postal": "68503"}, "bbox": {"northeast": [40.8184549803, -96.6767980197], "southwest": [40.8157570197, -96.6794959803]}}, {"geometry": {"type": "Point", "coordinates": [-96.6984346933, 40.7990999123]}, "type": "Feature", "properties": {"city": "Lincoln", "neighborhood": "Near South", "country": "US", "address": "1525-1599 A St, Lincoln, NE 68502, USA", "case_no": "NDOR210041951", "county": "Lancaster County", "state": "NE", "street": "A St", "status_code": 200, "postal": "68502", "housenumber": "1525-1599"}, "bbox": [-96.7003248803, 40.7978289697, -96.6976269197, 40.8005269303]}, {"geometry": {"type": "Point", "coordinates": [-96.691631, 40.787813]}, "type": "Feature", "properties": {"city": "Lincoln", "neighborhood": "Country Club", "status_code": 200, "country": "US", "case_no": "NDOR210039800", "county": "Lancaster County", "state": "NE", "street": "Lake St", "address": "2009 Lake St, Lincoln, NE 68502, USA", "postal": "68502", "housenumber": "2009"}, "bbox": [-96.6929799803, 40.7864640197, -96.6902820197, 40.7891619803]}, {"geometry": {"type": "Point", "coordinates": [-96.7055934888, 40.805901572]}, "type": "Feature", "properties": {"city": "Lincoln", "neighborhood": "Everett", "status_code": 200, "country": "US", "case_no": "B7-019486", "county": "Lancaster County", "state": "NE", "street": "S 11th St", "address": "S 11th St & G St, Lincoln, NE 68508, USA", "postal": "68508"}, "bbox": [-96.7069149803, 40.8045060197, -96.7042170197, 40.8072039803]}, {"geometry": {"type": "Point", "coordinates": [-96.6345839, 40.829822300000004]}, "type": "Feature", "properties": {"city": "Lincoln", "neighborhood": "University Place", "status_code": 200, "country": "US", "case_no": "NDOR210029622", "county": "Lancaster County", "state": "NE", "street": "Aylesworth Ave", "address": "6298 Aylesworth Ave, Lincoln, NE 68505, USA", "postal": "68505", "housenumber": "6298"}, "bbox": [-96.6365164803, 40.8284610197, -96.6338185197, 40.8311589803]}, {"geometry": {"type": "Point", "coordinates": [-96.6981556, 40.816871]}, "type": "Feature", "properties": {"city": "Lincoln", "status_code": 200, "country": "US", "case_no": "NDOR212003630", "county": "Lancaster County", "state": "NE", "street": "N 16th St", "address": "348-398 N 16th St, Lincoln, NE 68508, USA", "postal": "68508", "housenumber": "348-398"}, "bbox": [-96.6995247303, 40.8153042197, -96.6968267697, 40.8180021803]}, {"geometry": {"type": "Point", "coordinates": [-96.6727397034, 40.7686412476]}, "type": "Feature", "properties": {"city": "Lincoln", "country": "US", "address": "3301-3667 Nebraska Hwy, Lincoln, NE 68516, USA", "case_no": "NDOR208031342", "county": "Lancaster County", "state": "NE", "street": "NE-2", "status_code": 200, "postal": "68516", "housenumber": "3301-3667"}, "bbox": [-96.6728872, 40.7659599, -96.6673881, 40.7686893]}, {"geometry": {"type": "Point", "coordinates": [-96.65378, 40.7989181]}, "type": "Feature", "properties": {"city": "Lincoln", "status_code": 200, "country": "US", "case_no": "NDOR208031345", "county": "Lancaster County", "state": "NE", "street": "A St", "address": "4769-4799 A St, Lincoln, NE 68510, USA", "postal": "68510", "housenumber": "4769-4799"}, "bbox": [-96.6552690303, 40.7975837697, -96.6525710697, 40.8002817303]}, {"geometry": {"type": "Point", "coordinates": [-96.682159, 40.844717]}, "type": "Feature", "properties": {"city": "Lincoln", "neighborhood": "Sunset Acres", "country": "US", "case_no": "B4-044178", "county": "Lancaster County", "state": "NE", "street": "N 27th St", "address": "North 27th Street & K-Mart Drive, Lincoln, NE 68504, USA", "postal": "68504"}, "bbox": {"northeast": [40.8461085803, -96.6806974197], "southwest": [40.8434106197, -96.6833953803]}}, {"geometry": {"type": "Point", "coordinates": [-96.672858, 40.77899]}, "type": "Feature", "properties": {"city": "Lincoln", "country": "US", "case_no": "B3-080892", "county": "Lancaster County", "state": "NE", "street": "S 33rd St", "address": "South 33rd Street & Edwards Court, Lincoln, NE 68502, USA", "postal": "68502"}, "bbox": {"northeast": [40.7805707803, -96.6714945197], "southwest": [40.7778728197, -96.6741924803]}}, {"geometry": {"type": "Point", "coordinates": [-96.708603, 40.799234]}, "type": "Feature", "properties": {"city": "Lincoln", "neighborhood": "South Salt Creek", "country": "US", "case_no": "B2-027510", "county": "Lancaster County", "state": "NE", "street": "A St", "address": "A Street & South 9th Street, Lincoln, NE 68502, USA", "postal": "68502"}, "bbox": {"northeast": [40.8005689803, -96.7072320197], "southwest": [40.7978710197, -96.7099299803]}}, {"geometry": {"type": "Point", "coordinates": [-96.6953526249, 40.8103568015]}, "type": "Feature", "properties": {"city": "Lincoln", "neighborhood": "Downtown", "country": "US", "case_no": "B4-032928", "county": "Lancaster County", "state": "NE", "street": "L St", "address": "L Street & South 18th Street, Lincoln, NE 68508, USA", "postal": "68508"}, "bbox": {"northeast": [40.8116179803, -96.6939660197], "southwest": [40.8089200197, -96.6966639803]}}, {"geometry": {"type": "Point", "coordinates": [-96.70257019747731, 40.8126019524168]}, "type": "Feature", "properties": {"city": "Lincoln", "neighborhood": "Downtown", "country": "US", "address": "S 13th St & N St, Lincoln, NE 68508, USA", "case_no": "B6-049135", "county": "Lancaster County", "state": "NE", "street": "S 13th St", "status_code": 200, "postal": "68508"}, "bbox": [-96.7039559803, 40.8111480197, -96.7012580197, 40.8138459803]}, {"geometry": {"type": "Point", "coordinates": [-96.6537124399, 40.8208839812]},