{"type": "FeatureCollection", "features": [{"geometry": {"type": "Point", "coordinates": [-96.6825899, 40.8059209]}, "type": "Feature", "properties": {"city": "Lincoln", "neighborhood": "Woods Park", "country": "US", "address": "801 S 27th St, Lincoln, NE 68510, USA", "case_no": "B6-112389", "county": "Lancaster County", "state": "NE", "street": "S 27th St", "status_code": 200, "postal": "68510", "housenumber": "801"}, "bbox": [-96.68393888029149, 40.8045719197085, -96.68124091970849, 40.8072698802915]}, {"geometry": {"type": "Point", "coordinates": [-96.66501835560264, 40.79159260553979]}, "type": "Feature", "properties": {"city": "Lincoln", "neighborhood": "40th&A", "country": "US", "case_no": "B4-089529", "county": "Lancaster County", "state": "NE", "street": "South St", "address": "South Street & Normal Boulevard, Lincoln, NE 68506, USA", "postal": "68506"}, "bbox": {"northeast": [40.79298058029149, -96.6635969197085], "southwest": [40.79028261970849, -96.6662948802915]}}, {"geometry": {"type": "Point", "coordinates": [-96.60602590917863, 40.83524354503304]}, "type": "Feature", "properties": {"city": "Lincoln", "country": "US", "case_no": "B3-040261", "county": "Lancaster County", "state": "NE", "street": "Leighton Ave", "address": "Leighton Avenue & North 83rd Street, Lincoln, NE 68507, USA", "postal": "68507"}, "bbox": {"northeast": [40.83663798029149, -96.6072580197085], "southwest": [40.8339400197085, -96.6099559802915]}}, {"geometry": {"type": "Point", "coordinates": [-96.705611, 40.79921]}, "type": "Feature", "properties": {"city": "Lincoln", "neighborhood": "Everett", "country": "US", "case_no": "B2-046340", "county": "Lancaster County", "state": "NE", "street": "A St", "address": "A Street & South 11th Street, Lincoln, NE 68502, USA", "postal": "68502"}, "bbox": {"northeast": [40.80055798029149, -96.70427001970849], "southwest": [40.79786001970849, -96.7069679802915]}}, {"geometry": {"type": "Point", "coordinates": [-96.614011, 40.798993]}, "type": "Feature", "properties": {"city": "Lincoln", "country": "US", "case_no": "B3-039549", "county": "Lancaster County", "state": "NE", "street": "A St", "address": "A Street & South 77th Street, Lincoln, NE 68506, USA", "postal": "68506"}, "bbox": {"northeast": [40.8003549802915, -96.6141430197085], "southwest": [40.7976570197085, -96.6168409802915]}}, {"geometry": {"type": "Point", "coordinates": [-96.720392, 40.835637]}, "type": "Feature", "properties": {"city": "Lincoln", "neighborhood": "West Lincoln", "country": "US", "case_no": "B2-024814", "county": "Lancaster County", "state": "NE", "street": "Cornhusker Hwy", "address": "Cornhusker Highway & North 1st Street, Lincoln, NE 68521, USA", "postal": "68521"}, "bbox": {"northeast": [40.8370350802915, -96.7189379197085], "southwest": [40.8343371197085, -96.7216358802915]}}, {"geometry": {"type": "Point", "coordinates": [-96.672634, 40.842632]}, "type": "Feature", "properties": {"city": "Lincoln", "neighborhood": "Sunset Acres", "country": "US", "case_no": "B3-065731", "county": "Lancaster County", "state": "NE", "street": "Cornhusker Hwy", "address": "Cornhusker Highway & North 33rd Street, Lincoln, NE 68504, USA", "postal": "68504"}, "bbox": {"northeast": [40.84399028029149, -96.67146711970848], "southwest": [40.84129231970849, -96.6741650802915]}}, {"geometry": {"type": "Point", "coordinates": [-96.702626, 40.81474]}, "type": "Feature", "properties": {"city": "Lincoln", "neighborhood": "Downtown", "country": "US", "case_no": "B3-012814", "county": "Lancaster County", "state": "NE", "street": "P St", "address": "P Street & North 13th Street, Lincoln, NE 68508, USA", "postal": "68508"}, "bbox": {"northeast": [40.8160979802915, -96.7012350197085], "southwest": [40.8134000197085, -96.70393298029151]}}, {"geometry": {"type": "Point", "coordinates": [-96.715835, 40.802536]}, "type": "Feature", "properties": {"city": "Lincoln", "neighborhood": "South Salt Creek", "country": "US", "case_no": "B3-078926", "county": "Lancaster County", "state": "NE", "street": "D St", "address": "D Street & South 4th Street, Lincoln, NE 68502, USA", "postal": "68502"}, "bbox": {"northeast": [40.80391228029149, -96.71449291970849], "southwest": [40.80121431970849, -96.71719088029151]}}, {"geometry": {"type": "Point", "coordinates": [-96.6926052596014, 40.82120027767636]}, "type": "Feature", "properties": {"city": "Lincoln", "country": "US", "case_no": "B3-096911", "county": "Lancaster County", "state": "NE", "street": "N Antelope Valley Pkwy", "address": "North Antelope Valley Parkway & Vine Street, Lincoln, NE 68503, USA", "postal": "68503"}, "bbox": {"northeast": [40.8223235802915, -96.69120911970849], "southwest": [40.8196256197085, -96.69390708029151]}}, {"geometry": {"type": "Point", "coordinates": [-96.7873106, 40.8443718]}, "type": "Feature", "properties": {"city": "Lincoln", "neighborhood": "Arnold Heights", "status_code": 200, "country": "US", "case_no": "NDOR209049844", "county": "Lancaster County", "state": "NE", "street": "NW 48th St", "address": "3110 NW 48th St, Lincoln, NE 68524, USA", "postal": "68524", "housenumber": "3110"}, "bbox": [-96.7886839302915, 40.8430308197085, -96.78598596970849, 40.8457287802915]}, {"geometry": {"type": "Point", "coordinates": [-96.70567120311055, 40.80485829802991]}, "type": "Feature", "properties": {"city": "Lincoln", "neighborhood": "Everett", "status_code": 200, "country": "US", "case_no": "B6-054902", "county": "Lancaster County", "state": "NE", "street": "F St", "address": "F St & S 11th St, Lincoln, NE 68508, USA", "postal": "68508"}, "bbox": [-96.7069239802915, 40.80340501970849, -96.7042260197085, 40.80610298029149]}, {"geometry": {"type": "Point", "coordinates": [-96.708541, 40.803666]}, "type": "Feature", "properties": {"city": "Lincoln", "neighborhood": "South Salt Creek", "country": "US", "address": "S 9th St & E St, Lincoln, NE 68508, USA", "case_no": "B6-077236", "county": "Lancaster County", "state": "NE", "street": "S 9th St", "status_code": 200, "postal": "68508"}, "bbox": [-96.7098899802915, 40.8023170197085, -96.70719201970849, 40.8050149802915]}, {"geometry": {"type": "Point", "coordinates": [-96.698181, 40.815831]}, "type": "Feature", "properties": {"city": "Lincoln", "neighborhood": "Downtown", "country": "US", "case_no": "B4-080902", "county": "Lancaster County", "state": "NE", "street": "N 16th St", "address": "University of Nebraska-Lincoln, North 16th Street & Q Street, Lincoln, NE 68508, USA", "postal": "68508"}, "bbox": {"northeast": [40.8171799802915, -96.69683201970851], "southwest": [40.8144820197085, -96.69952998029152]}}, {"geometry": {"type": "Point", "coordinates": [-96.68817510647504, 40.73953654258891]}, "type": "Feature", "properties": {"city": "Lincoln", "country": "US", "address": "6930 Ridge Rd, Lincoln, NE 68512, USA", "case_no": "NDOR213043141", "county": "Lancaster County", "state": "NE", "street": "Ridge Rd", "status_code": 200, "postal": "68512", "housenumber": "6930"}, "bbox": [-96.68913098029151, 40.73850701970849, -96.68643301970849, 40.74120498029149]}, {"geometry": {"type": "Point", "coordinates": [-96.694048, 40.813559]}, "type": "Feature", "properties": {"city": "Lincoln", "neighborhood": "Downtown", "country": "US", "case_no": "B4-067796", "county": "Lancaster County", "state": "NE", "street": "E O St", "address": "East O Street & South Antelope Valley Parkway, Lincoln, NE 68508, USA", "postal": "68508"}, "bbox": {"northeast": [40.81493298029149, -96.6925100197085], "southwest": [40.8122350197085, -96.6952079802915]}}, {"geometry": {"type": "Point", "coordinates": [-96.68240004467307, 40.82447310733292]}, "type": "Feature", "properties": {"city": "Lincoln", "neighborhood": "Clinton", "country": "US", "case_no": "B3-049103", "county": "Lancaster County", "state": "NE", "street": "N 27th St", "address": "North 27th Street & Y Street, Lincoln, NE 68503, USA", "postal": "68503"}, "bbox": {"northeast": [40.82571608029151, -96.68097571970848], "southwest": [40.82301811970851, -96.68367368029149]}}, {"geometry": {"type": "Point", "coordinates": [-96.68223242289181, 40.82428396238295]}, "type": "Feature", "properties": {"city": "Lincoln", "neighborhood": "Clinton", "country": "US", "address": "2698 Y St, Lincoln, NE 68503, USA", "case_no": "B2-066854", "county": "Lancaster County", "state": "NE", "street": "Y St", "status_code": 200, "postal": "68503", "housenumber": "2698"}, "bbox": [-96.6838935302915, 40.8230191197085, -96.68119556970848, 40.8257170802915]}, {"geometry": {"type": "Point", "coordinates": [-96.627675, 40.798829]}, "type": "Feature", "properties": {"city": "Lincoln", "country": "US", "address": "A St & Kingston Rd, Lincoln, NE 68506, USA", "case_no": "B6-014057", "county": "Lancaster County", "state": "NE", "street": "A St", "status_code": 200, "postal": "68506"}, "bbox": [-96.6290239802915, 40.7974800197085, -96.6263260197085, 40.8001779802915]}, {"geometry": {"type": "Point", "coordinates": [-96.62484669999999, 40.8526241]}, "type": "Feature", "properties": {"city": "Lincoln", "neighborhood": "Havelock", "country": "US", "case_no": "B5-061304", "county": "Lancaster County", "state": "NE", "street": "N 70th St", "address": "3950 N 70th St, Lincoln, NE 68507, USA", "postal": "68507", "housenumber": "3950"}, "bbox": {"northeast": [40.8539730802915, -96.62350691970848], "southwest": [40.8512751197085, -96.6262048802915]}}, {"geometry": {"type": "Point", "coordinates": [-96.642097, 40.75374]}, "type": "Feature", "properties": {"city": "Lincoln", "status_code": 200, "country": "US", "case_no": "B3-041590", "county": "Lancaster County", "state": "NE", "street": "Old Cheney Rd", "address": "5743 Old Cheney Rd, Lincoln, NE 68516, USA", "postal": "68516", "housenumber": "5743"}, "bbox": [-96.64393348029151, 40.75244361970851, -96.64123551970849, 40.7551415802915]}, {"geometry": {"type": "Point", "coordinates": [-96.6984499, 40.79778599999999]}, "type": "Feature", "properties": {"city": "Lincoln", "neighborhood": "Near South", "status_code": 200, "country": "US", "case_no": "NDOR210044524", "county": "Lancaster County", "state": "NE", "street": "Washington St", "address": "1545 Washington St, Lincoln, NE 68502, USA", "postal": "68502", "housenumber": "1545"}, "bbox": [-96.6997988802915, 40.79643701970849, -96.69710091970849, 40.79913498029149]}, {"geometry": {"type": "Point", "coordinates": [-96.67280201109189, 40.82060564315612]}, "type": "Feature", "properties": {"city": "Lincoln", "neighborhood": "Hartley", "status_code": 200, "country": "US", "case_no": "B6-066818", "county": "Lancaster County", "state": "NE", "street": "Vine St", "address": "Vine St & N 33rd St, Lincoln, NE 68503, USA", "postal": "68503"}, "bbox": [-96.67426898029152, 40.81935001970849, -96.67157101970851, 40.82204798029149]}, {"geometry": {"type": "Point", "coordinates": [-96.638322, 40.798475]}, "type": "Feature", "properties": {"city": "Lincoln", "status_code": 200, "country": "US", "case_no": "NDOR208049309", "county": "Lancaster County", "state": "NE", "street": "A St", "address": "6001 A St, Lincoln, NE 68510, USA", "postal": "68510", "housenumber": "6001"}, "bbox": [-96.6396709802915, 40.79712601970849, -96.63697301970849, 40.79982398029149]}, {"geometry": {"type": "Point", "coordinates": [-96.6834497, 40.823523]}, "type": "Feature", "properties": {"city": "Lincoln", "status_code": 200, "country": "US", "case_no": "NDOR211033529", "county": "Lancaster County", "state": "NE", "street": "N 26th St", "address": "1000-1098 N 26th St, Lincoln, NE 68503, USA", "postal": "68503", "housenumber": "1000-1098"}, "bbox": [-96.68481868029151, 40.82259326970851, -96.6821207197085, 40.8252912302915]}, {"geometry": {"type": "Point", "coordinates": [-96.6925581, 40.8209746]}, "type": "Feature", "properties": {"city": "Lincoln", "country": "US", "case_no": "B5-114619", "county": "Lancaster County", "state": "NE", "street": "N Antelope Valley Pkwy", "address": "N Antelope Valley Pkwy & Vine St, Lincoln, NE 68503, USA", "postal": "68503"}, "bbox": {"northeast": [40.8223235802915, -96.69120911970849], "southwest": [40.8196256197085, -96.69390708029151]}}, {"geometry": {"type": "Point", "coordinates": [-96.6993401, 40.82085250000001]}, "type": "Feature", "properties": {"city": "Lincoln", "country": "US", "case_no": "B5-114615", "county": "Lancaster County", "state": "NE", "street": "Vine St", "address": "1500 Vine St, Lincoln, NE 68508, USA", "postal": "68508", "housenumber": "1500"}, "bbox": {"northeast": [40.82219438029151, -96.69799116970849], "southwest": [40.81949641970851, -96.70068913029151]}}, {"geometry": {"type": "Point", "coordinates": [-96.7056133, 40.796994]}, "type": "Feature", "properties": {"city": "Lincoln", "neighborhood": "Everett", "status_code": 200, "country": "US", "case_no": "NDOR211029988", "county": "Lancaster County", "state": "NE", "street": "S 11th St", "address": "1600-1610 S 11th St, Lincoln, NE 68502, USA", "postal": "68502", "housenumber": "1600-1610"}, "bbox": [-96.7069827302915, 40.7953870197085, -96.7042847697085, 40.7980849802915]}, {"geometry": {"type": "Point", "coordinates": [-96.653814, 40.762793]}, "type": "Feature", "properties": {"city": "Lincoln", "country": "US", "case_no": "B4-067912", "county": "Lancaster County", "state": "NE", "street": "S 48th St", "address": "South 48th Street & Claire Avenue, Lincoln, NE 68516, USA", "postal": "68516"}, "bbox": {"northeast": [40.7638799802915, -96.65246091970849], "southwest": [40.7611820197085, -96.65515888029151]}}, {"geometry": {"type": "Point", "coordinates": [-96.706752, 40.80204]}, "type": "Feature", "properties": {"city": "Lincoln", "neighborhood": "Everett", "status_code": 200, "country": "US", "case_no": "NDOR211041831", "county": "Lancaster County", "state": "NE", "street": "S 10th St", "address": "1124 S 10th St, Lincoln, NE 68502, USA", "postal": "68502", "housenumber": "1124"}, "bbox": [-96.7081009802915, 40.8006910197085, -96.70540301970848, 40.8033889802915]}, {"geometry": {"type": "Point", "coordinates": [-96.705584, 40.803656]}, "type": "Feature", "properties": {"city": "Lincoln", "neighborhood": "Everett", "status_code": 200, "country": "US", "case_no": "B6-088803", "county": "Lancaster County", "state": "NE", "street": "E St", "address": "E St & S 11th St, Lincoln, NE 68508, USA", "postal": "68508"}, "bbox": [-96.70693298029151, 40.8023070197085, -96.7042350197085, 40.8050049802915]}, {"geometry": {"type": "Point", "coordinates": [-96.6825057, 40.772172]}, "type": "Feature", "properties": {"city": "Lincoln", "neighborhood": "Country Club", "status_code": 200, "country": "US", "case_no": "NDOR210032044", "county": "Lancaster County", "state": "NE", "street": "S 27th St", "address": "4100 S 27th St, Lincoln, NE 68502, USA", "postal": "68502", "housenumber": "4100"}, "bbox": [-96.6838726302915, 40.7706610197085, -96.6811746697085, 40.7733589802915]}, {"geometry": {"type": "Point", "coordinates": [-96.70559929999999, 40.79931699999999]}, "type": "Feature", "properties": {"city": "Lincoln", "neighborhood": "Everett", "status_code": 200, "country": "US", "case_no": "NDOR211043692", "county": "Lancaster County", "state": "NE", "street": "S 11th St", "address": "1342-1398 S 11th St, Lincoln, NE 68502, USA", "postal": "68502", "housenumber": "1342-1398"}, "bbox": [-96.7069657302915, 40.7981321697085, -96.70426776970848, 40.8008301302915]}, {"geometry": {"type": "Point", "coordinates": [-96.70142785619936, 40.73852340763687]}, "type": "Feature", "properties": {"city": "Lincoln", "country": "US", "case_no": "B5-095074", "county": "Lancaster County", "state": "NE", "street": "Pine Lake Rd", "address": "Pine Lake Rd & S 14th St, Lincoln, NE 68512, USA", "postal": "68512"}, "bbox": {"northeast": [40.7399074802915, -96.7000970197085], "southwest": [40.7372095197085, -96.7027949802915]}}, {"geometry": {"type": "Point", "coordinates": [-96.6855298034031, 40.79906192168341]}, "type": "Feature", "properties": {"city": "Lincoln", "neighborhood": "Near South", "country": "US", "case_no": "B5-072381", "county": "Lancaster County", "state": "NE", "street": "A St", "address": "A St & S 25th St, Lincoln, NE 68502, USA", "postal": "68502"}, "bbox": {"northeast": [40.80029998029149, -96.68403301970848], "southwest": [40.79760201970849, -96.68673098029149]}}, {"geometry": {"type": "Point", "coordinates": [-96.70265099999999, 40.826897]}, "type": "Feature", "properties": {"city": "Lincoln", "neighborhood": "North Bottoms", "country": "US", "case_no": "B5-116045", "county": "Lancaster County", "state": "NE", "street": "New Hampshire St", "address": "1300 New Hampshire St, Lincoln, NE 68508, USA", "postal": "68508", "housenumber": "1300"}, "bbox": {"northeast": [40.82824598029149, -96.70130201970848], "southwest": [40.82554801970849, -96.7039999802915]}}, {"geometry": {"type": "Point", "coordinates": [-96.662971, 40.841003]}, "type": "Feature", "properties": {"city": "Lincoln", "neighborhood": "University Place", "status_code": 200, "country": "US", "case_no": "NDOR210030333", "county": "Lancaster County", "state": "NE", "street": "N 41st St", "address": "2845 N 41st St, Lincoln, NE 68504, USA", "postal": "68504", "housenumber": "2845"}, "bbox": [-96.66431998029151, 40.8396540197085, -96.66162201970849, 40.8423519802915]}, {"geometry": {"type": "Point", "coordinates": [-96.685136, 40.820759]}, "type": "Feature", "properties": {"city": "Lincoln", "neighborhood": "Hawley", "status_code": 200, "country": "US", "case_no": "B2-095692", "county": "Lancaster County", "state": "NE", "street": "Vine St", "address": "2501-2509 Vine St, Lincoln, NE 68503, USA", "postal": "68503", "housenumber": "2501-2509"}, "bbox": [-96.68625463029149, 40.8193653197085, -96.68355666970848, 40.82206328029149]}, {"geometry": {"type": "Point", "coordinates": [-96.672825, 40.802568]}, "type": "Feature", "properties": {"city": "Lincoln", "neighborhood": "Woods Park", "status_code": 200, "country": "US", "case_no": "B2-040476", "county": "Lancaster County", "state": "NE", "street": "D St", "address": "3301 D St, Lincoln, NE 68510, USA", "postal": "68510", "housenumber": "3301"}, "bbox": [-96.6739879802915, 40.8010400197085, -96.6712900197085, 40.8037379802915]}, {"geometry": {"type": "Point", "coordinates": [-96.6588677, 40.8487517]}, "type": "Feature", "properties": {"city": "Lincoln", "country": "US", "case_no": "B5-082478", "county": "Lancaster County", "state": "NE", "street": "Cornhusker Hwy", "address": "Cornhusker Hwy & N 44th St, Lincoln, NE 68504, USA", "postal": "68504"}, "bbox": {"northeast": [40.8501006802915, -96.65751871970849], "southwest": [40.8474027197085, -96.66021668029151]}}, {"geometry": {"type": "Point", "coordinates": [-96.65374, 40.8426186]}, "type": "Feature", "properties": {"city": "Lincoln", "neighborhood": "University Place", "country": "US", "case_no": "B5-115048", "county": "Lancaster County", "state": "NE", "street": "Adams St", "address": "Adams St & N 48th St, Lincoln, NE 68504, USA", "postal": "68504"}, "bbox": {"northeast": [40.8439675802915, -96.65239101970849], "southwest": [40.8412696197085, -96.65508898029151]}}, {"geometry": {"type": "Point", "coordinates": [-96.7517841, 40.7905831]}, "type": "Feature", "properties": {"city": "Lincoln", "neighborhood": "West A", "status_code": 200, "country": "US", "case_no": "B6-091648", "county": "Lancaster County", "state": "NE", "street": "S Coddington Ave", "address": "2323 S Coddington Ave, Lincoln, NE 68522, USA", "postal": "68522", "housenumber": "2323"}, "bbox": [-96.75313308029149, 40.7892341197085, -96.75043511970848, 40.7919320802915]}, {"geometry": {"type": "Point", "coordinates": [-96.68512, 40.739538]}, "type": "Feature", "properties": {"city": "Lincoln", "country": "US", "case_no": "B4-092493", "county": "Lancaster County", "state": "NE", "street": "Pine Lake Rd", "address": "Pine Lake Road & South 27th Street, Lincoln, NE 68516, USA", "postal": "68516"}, "bbox": {"northeast": [40.7409874802915, -96.68108461970849], "southwest": [40.7382895197085, -96.68378258029149]}}, {"geometry": {"type": "Point", "coordinates": [-96.695341, 40.805814]}, "type": "Feature", "properties": {"city": "Lincoln", "neighborhood": "Downtown", "status_code": 200, "country": "US", "case_no": "B6-086419", "county": "Lancaster County", "state": "NE", "street": "G St", "address": "G St & S 18th St, Lincoln, NE 68508, USA", "postal": "68508"}, "bbox": [-96.69668998029151, 40.8044650197085, -96.6939920197085, 40.8071629802915]}, {"geometry": {"type": "Point", "coordinates": [-96.68231958770275, 40.82789959186826]}, "type": "Feature", "properties": {"city": "Lincoln", "neighborhood": "Clinton", "country": "US", "address": "1489-1499 N 27th St, Lincoln, NE 68503, USA", "case_no": "NDOR212009046", "county": "Lancaster County", "state": "NE", "street": "N 27th St", "status_code": 200, "postal": "68503", "housenumber": "1489-1499"}, "bbox": [-96.6836609802915, 40.8266495197085, -96.6809630197085, 40.8293474802915]}, {"geometry": {"type": "Point", "coordinates": [-96.65294001201417, 40.84837552041367]}, "type": "Feature", "properties": {"city": "Lincoln", "neighborhood": "University Place", "country": "US", "address": "4825 Fremont St, Lincoln, NE 68504, USA", "case_no": "NDOR208025061", "county": "Lancaster County", "state": "NE", "street": "Fremont St", "status_code": 200, "postal": "68504", "housenumber": "4825"}, "bbox": [-96.6542569802915, 40.8469730197085, -96.6515590197085, 40.8496709802915]}, {"geometry": {"type": "Point", "coordinates": [-96.6304883, 40.8132728]}, "type": "Feature", "properties": {"city": "Lincoln", "status_code": 200, "country": "US", "case_no": "NDOR209009954", "county": "Lancaster County", "state": "NE", "street": "US-34", "address": "6557-6713 O St, Lincoln, NE 68510, USA", "postal": "68510", "housenumber": "6557-6713"}, "bbox": [-96.6311738302915, 40.8119296197085, -96.62847586970848, 40.81462758029149]}, {"geometry": {"type": "Point", "coordinates": [-96.698162, 40.820806]}, "type": "Feature", "properties": {"city": "Lincoln", "status_code": 200, "country": "US", "case_no": "NDOR213007116", "county": "Lancaster County", "state": "NE", "street": "N 16th St", "address": "733 N 16th St, Lincoln, NE 68508, USA", "postal": "68508", "housenumber": "733"}, "bbox": [-96.69989198029151, 40.8192140197085, -96.6971940197085, 40.8219119802915]}, {"geometry": {"type": "Point", "coordinates": [-96.789718, 40.857992]}, "type": "Feature", "properties": {"city": "Lincoln", "neighborhood": "Arnold Heights", "status_code": 200, "country": "US", "case_no": "B2-087828", "county": "Lancaster County", "state": "NE", "street": "W Superior St", "address": "5021 W Superior St, Lincoln, NE 68524, USA", "postal": "68524", "housenumber": "5021"}, "bbox": [-96.79120638029151, 40.85652431970851, -96.7885084197085, 40.8592222802915]}, {"geometry": {"type": "Point", "coordinates": [-96.6593891, 40.7807302]}, "type": "Feature", "properties": {"city": "Lincoln", "country": "US", "address": "S 44th St & High St, Lincoln, NE 68506, USA", "case_no": "B6-080877", "county": "Lancaster County", "state": "NE", "street": "S 44th St", "status_code": 200, "postal": "68506"}, "bbox": [-96.66073808029151, 40.7793812197085, -96.6580401197085, 40.7820791802915]}, {"geometry": {"type": "Point", "coordinates": [-96.67294801017646, 40.8281298047235]}, "type": "Feature", "properties": {"city": "Lincoln", "neighborhood": "Clinton", "country": "US", "case_no": "B2-087482", "county": "Lancaster County", "state": "NE", "street": "Holdrege St", "address": "University of Nebraska-Lincoln, University of Nebraska-Lincoln: East Campus, Holdrege Street & North 33rd Street, Lincoln, NE 68503, USA", "postal": "68503"}, "bbox": {"northeast": [40.8293699802915, -96.67151201970849], "southwest": [40.8266720197085, -96.6742099802915]}}, {"geometry": {"type": "Point", "coordinates": [-96.704493, 40.8569758]}, "type": "Feature", "properties": {"city": "Lincoln", "neighborhood": "Belmont", "status_code": 200, "country": "US", "case_no": "NDOR208043157", "county": "Lancaster County", "state": "NE", "street": "Lewis Ave", "address": "4 Lewis Ave, Lincoln, NE 68521, USA", "postal": "68521", "housenumber": "4"}, "bbox": [-96.7058419802915, 40.8556268197085, -96.70314401970849, 40.8583247802915]}, {"geometry": {"type": "Point", "coordinates": [-96.67263438857854, 40.76856078672714]}, "type": "Feature", "properties": {"city": "Lincoln", "country": "US", "address": "3301-3667 Nebraska Hwy, Lincoln, NE 68516, USA", "case_no": "NDOR209054166", "county": "Lancaster County", "state": "NE", "street": "NE-2", "status_code": 200, "postal": "68516", "housenumber": "3301-3667"}, "bbox": [-96.67288719999999, 40.7659599, -96.6673881, 40.7686893]}, {"geometry": {"type": "Point", "coordinates": [-96.6558678, 40.8135434]}, "type": "Feature", "properties": {"city": "Lincoln", "neighborhood": "Hartley", "status_code": 200, "country": "US", "case_no": "NDOR209031319", "county": "Lancaster County", "state": "NE", "street": "US-34", "address": "4600 O St, Lincoln, NE 68504, USA", "postal": "68504", "housenumber": "4600"}, "bbox": [-96.6573158802915, 40.8121821697085, -96.6546179197085, 40.81488013029149]}, {"geometry": {"type": "Point", "coordinates": [-96.646045, 40.836996]}, "type": "Feature", "properties": {"city": "Lincoln", "neighborhood": "University Place", "status_code": 200, "country": "US", "case_no": "NDOR209056237", "county": "Lancaster County", "state": "NE", "street": "Huntington Ave", "address": "5343 Huntington Ave, Lincoln, NE 68504, USA", "postal": "68504", "housenumber": "5343"}, "bbox": [-96.64739398029151, 40.8356470197085, -96.6446960197085, 40.8383449802915]}, {"geometry": {"type": "Point", "coordinates": [-96.68304782004783, 40.81345427595693]}, "type": "Feature", "properties": {"city": "Lincoln", "neighborhood": "Woods Park", "country": "US", "address": "2631 E O St, Lincoln, NE 68510, USA", "case_no": "NDOR210037861", "county": "Lancaster County", "state": "NE", "street": "E O St", "status_code": 200, "postal": "68510", "housenumber": "2631"}, "bbox": [-96.68429258029151, 40.8120284197085, -96.68159461970849, 40.8147263802915]}, {"geometry": {"type": "Point", "coordinates": [-96.60635158164311, 40.82090258159562]}, "type": "Feature", "properties": {"city": "Lincoln", "neighborhood": "Meadowlane", "country": "US", "address": "8340 Vine St, Lincoln, NE 68505, USA", "case_no": "NDOR208037513", "county": "Lancaster County", "state": "NE", "street": "Vine St", "status_code": 200, "postal": "68505", "housenumber": "8340"}, "bbox": [-96.60768998029151, 40.8196180197085, -96.6049920197085, 40.8223159802915]}, {"geometry": {"type": "Point", "coordinates": [-96.67016157302115, 40.82070635350749]}, "type": "Feature", "properties": {"city": "Lincoln", "neighborhood": "Hartley", "country": "US", "address": "792-798 N 35th St, Lincoln, NE 68503, USA", "case_no": "NDOR211027791", "county": "Lancaster County", "state": "NE", "street": "N 35th St", "status_code": 200, "postal": "68503", "housenumber": "792-798"}, "bbox": [-96.6715524802915, 40.8194070197085, -96.66885451970849, 40.8221049802915]}, {"geometry": {"type": "Point", "coordinates": [-96.654201, 40.783957]}, "type": "Feature", "properties": {"city": "Lincoln", "status_code": 200, "country": "US", "case_no": "NDOR211027792", "county": "Lancaster County", "state": "NE", "street": "S 48th St", "address": "2837 S 48th St, Lincoln, NE 68506, USA", "postal": "68506", "housenumber": "2837"}, "bbox": [-96.65554998029151, 40.7826080197085, -96.65285201970849, 40.7853059802915]}, {"geometry": {"type": "Point", "coordinates": [-96.651493, 40.817108]}, "type": "Feature", "properties": {"city": "Lincoln", "neighborhood": "Culler", "country": "US", "case_no": "B5-116494", "county": "Lancaster County", "state": "NE", "street": "R St", "address": "R St & N 50th St, Lincoln, NE 68504, USA", "postal": "68504"}, "bbox": {"northeast": [40.81845698029151, -96.6501440197085], "southwest": [40.81575901970851, -96.65284198029151]}}, {"geometry": {"type": "Point", "coordinates": [-96.701279, 40.822739]}, "type": "Feature", "properties": {"city": "Lincoln", "status_code": 200, "country": "US", "case_no": "B2-078941", "county": "Lancaster County", "state": "NE", "street": "N 14th St", "address": "912 N 14th St, Lincoln, NE 68508, USA", "postal": "68508", "housenumber": "912"}, "bbox": [-96.7026109802915, 40.8217590197085, -96.69991301970849, 40.8244569802915]}, {"geometry": {"type": "Point", "coordinates": [-96.6858352, 40.8571903]}, "type": "Feature", "properties": {"city": "Lincoln", "neighborhood": "Landon's", "country": "US", "case_no": "B5-038870", "county": "Lancaster County", "state": "NE", "street": "Superior St", "address": "Superior Street & North 24th Street, Lincoln, NE 68521, USA", "postal": "68521"}, "bbox": {"northeast": [40.8585392802915, -96.6844862197085], "southwest": [40.8558413197085, -96.68718418029151]}}, {"geometry": {"type": "Point", "coordinates": [-96.69666409999999, 40.79670369999999]}, "type": "Feature", "properties": {"city": "Lincoln", "neighborhood": "Near South", "status_code": 200, "country": "US", "case_no": "NDOR208037816", "county": "Lancaster County", "state": "NE", "street": "Garfield St", "address": "1701 Garfield St, Lincoln, NE 68502, USA", "postal": "68502", "housenumber": "1701"}, "bbox": [-96.696676, 40.7953645197085, -96.69396499999999, 40.7980624802915]}, {"geometry": {"type": "Point", "coordinates": [-96.720282, 40.854407]}, "type": "Feature", "properties": {"city": "Lincoln", "neighborhood": "West Lincoln", "country": "US", "case_no": "B4-046240", "county": "Lancaster County", "state": "NE", "street": "N 1st St", "address": "4410 North 1st Street, Lincoln, NE 68521, USA", "postal": "68521", "housenumber": "4410"}, "bbox": {"northeast": [40.85843663029149, -96.7184277197085], "southwest": [40.8557386697085, -96.72112568029151]}}, {"geometry": {"type": "Point", "coordinates": [-96.6823067, 40.8057391]}, "type": "Feature", "properties": {"city": "Lincoln", "neighborhood": "Woods Park", "status_code": 200, "country": "US", "case_no": "NDOR211022643", "county": "Lancaster County", "state": "NE", "street": "S 27th St", "address": "824 S 27th St, Lincoln, NE 68510, USA", "postal": "68510", "housenumber": "824"}, "bbox": [-96.68368083029151, 40.8039951697085, -96.6809828697085, 40.8066931302915]}, {"geometry": {"type": "Point", "coordinates": [-96.69724017087475, 40.787311905877004]}, "type": "Feature", "properties": {"city": "Lincoln", "neighborhood": "Irvingdale", "country": "US", "address": "1688 Perkins Blvd, Lincoln, NE 68502, USA", "case_no": "NDOR208040957", "county": "Lancaster County", "state": "NE", "street": "Perkins Blvd", "status_code": 200, "postal": "68502", "housenumber": "1688"}, "bbox": [-96.6985109802915, 40.7860790197085, -96.69581301970848, 40.78877698029149]}, {"geometry": {"type": "Point", "coordinates": [-96.72504978637875, 40.81363255816778]}, "type": "Feature", "properties": {"city": "Lincoln", "country": "US", "address": "500 US-6, Lincoln, NE 68528, USA", "case_no": "NDOR209044359", "county": "Lancaster County", "state": "NE", "street": "US-6", "status_code": 200, "postal": "68528", "housenumber": "500"}, "bbox": [-96.72677268029152, 40.81234671970849, -96.72407471970851, 40.81504468029149]}, {"geometry": {"type": "Point", "coordinates": [-96.699969, 40.812463]}, "type": "Feature", "properties": {"city": "Lincoln", "neighborhood": "Downtown", "country": "US", "case_no": "B2-041153", "county": "Lancaster County", "state": "NE", "street": "N St", "address": "N Street & Centennial Mall South, Lincoln, NE 68508, USA", "postal": "68508"}, "bbox": {"northeast": [40.8138359802915, -96.6983340197085], "southwest": [40.8111380197085, -96.7010319802915]}}, {"geometry": {"type": "Point", "coordinates": [-96.7058964, 40.8112826]}, "type": "Feature", "properties": {"city": "Lincoln", "neighborhood": "Downtown", "status_code": 200, "country": "US", "case_no": "NDOR211034536", "county": "Lancaster County", "state": "NE", "street": "S 11th St", "address": "301 S 11th St, Lincoln, NE 68508, USA", "postal": "68508", "housenumber": "301"}, "bbox": [-96.70724538029151, 40.8099336197085, -96.70454741970849, 40.81263158029149]}, {"geometry": {"type": "Point", "coordinates": [-96.781273, 40.835931]}, "type": "Feature", "properties": {"city": "Lincoln", "country": "US", "case_no": "B4-095405", "county": "Lancaster County", "state": "NE", "street": "W Leighton Ave", "address": "West Leighton Avenue & Northwest 43rd Street, Lincoln, NE 68524, USA", "postal": "68524"}, "bbox": {"northeast": [40.83728308029151, -96.77953031970848], "southwest": [40.83458511970851, -96.7822282802915]}}, {"geometry": {"type": "Point", "coordinates": [-96.645467, 40.756615]}, "type": "Feature", "properties": {"city": "Lincoln", "country": "US", "address": "5459-5507 Nebraska Hwy, Lincoln, NE 68516, USA", "case_no": "B3-067543", "county": "Lancaster County", "state": "NE", "street": "NE-2", "status_code": 200, "postal": "68516", "housenumber": "5459-5507"}, "bbox": [-96.64708228029151, 40.7553381697085, -96.64438431970851, 40.75803613029149]}, {"geometry": {"type": "Point", "coordinates": [-96.69654670000001, 40.8216559]}, "type": "Feature", "properties": {"city": "Lincoln", "status_code": 200, "country": "US", "case_no": "NDOR208027209", "county": "Lancaster County", "state": "NE", "street": "N 17th St", "address": "861-889 N 17th St, Lincoln, NE 68508, USA", "postal": "68508", "housenumber": "861-889"}, "bbox": [-96.6978750302915, 40.8204391697085, -96.69517706970849, 40.8231371302915]}, {"geometry": {"type": "Point", "coordinates": [-96.670465, 40.798937]}, "type": "Feature", "properties": {"city": "Lincoln", "neighborhood": "40th&A", "country": "US", "case_no": "B4-061463", "county": "Lancaster County", "state": "NE", "street": "A St", "address": "A Street & South 35th Street, Lincoln, NE 68510, USA", "postal": "68510"}, "bbox": {"northeast": [40.8002899802915, -96.6690950197085], "southwest": [40.7975920197085, -96.6717929802915]}}, {"geometry": {"type": "Point", "coordinates": [-96.706948, 40.821561]}, "type": "Feature", "properties": {"city": "Lincoln", "status_code": 200, "country": "US", "case_no": "NDOR213015973", "county": "Lancaster County", "state": "NE", "street": "Stadium Dr", "address": "800-888 Stadium Dr, Lincoln, NE 68501, USA", "postal": "68501", "housenumber": "800-888"}, "bbox": [-96.7082988802915, 40.8201811697085, -96.70560091970849, 40.8228791302915]}, {"geometry": {"type": "Point", "coordinates": [-96.640366, 40.851741]}, "type": "Feature", "properties": {"city": "Lincoln", "neighborhood": "Havelock", "country": "US", "case_no": "B2-033946", "county": "Lancaster County", "state": "NE", "street": "Touzalin Ave", "address": "Touzalin Avenue & Seward Avenue, Lincoln, NE 68507, USA", "postal": "68507"}, "bbox": {"northeast": [40.8531109802915, -96.63883801970849], "southwest": [40.8504130197085, -96.64153598029151]}}, {"geometry": {"type": "Point", "coordinates": [-96.7330839, 40.8355901]}, "type": "Feature", "properties": {"city": "Lincoln", "neighborhood": "West Lincoln", "status_code": 200, "country": "US", "case_no": "NDOR209010865", "county": "Lancaster County", "state": "NE", "street": "NW 8th St", "address": "2300-2330 NW 8th St, Lincoln, NE 68521, USA", "postal": "68521", "housenumber": "2300-2330"}, "bbox": [-96.7344599802915, 40.8347371197085, -96.7317620197085, 40.83743508029149]}, {"geometry": {"type": "Point", "coordinates": [-96.68236259999999, 40.8227616]}, "type": "Feature", "properties": {"city": "Lincoln", "neighborhood": "Hawley", "status_code": 200, "country": "US", "case_no": "NDOR210008963", "county": "Lancaster County", "state": "NE", "street": "N 27th St", "address": "915 N 27th St, Lincoln, NE 68503, USA", "postal": "68503", "housenumber": "915"}, "bbox": [-96.68370393029151, 40.82131846970851, -96.6810059697085, 40.82401643029151]}, {"geometry": {"type": "Point", "coordinates": [-96.70115280094794, 40.81702197741871]}, "type": "Feature", "properties": {"city": "Lincoln", "country": "US", "address": "1401-1409 R St, Lincoln, NE 68508, USA", "case_no": "NDOR210030764", "county": "Lancaster County", "state": "NE", "street": "R St", "status_code": 200, "postal": "68508", "housenumber": "1401-1409"}, "bbox": [-96.70241748029152, 40.8155799197085, -96.6997195197085, 40.8182778802915]}, {"geometry": {"type": "Point", "coordinates": [-96.66324399999999, 40.8016428]}, "type": "Feature", "properties": {"city": "Lincoln", "status_code": 200, "country": "US", "case_no": "NDOR210030449", "county": "Lancaster County", "state": "NE", "street": "C St", "address": "4001-4101 C St, Lincoln, NE 68510, USA", "postal": "68510", "housenumber": "4001-4101"}, "bbox": [-96.663271, 40.80030851970849, -96.65847099999999, 40.80300648029149]}, {"geometry": {"type": "Point", "coordinates": [-96.6443101, 40.758695]}, "type": "Feature", "properties": {"city": "Lincoln", "neighborhood": "Colonial Hills", "status_code": 200, "country": "US", "case_no": "NDOR211031828", "county": "Lancaster County", "state": "NE", "street": "Shady Creek Dr", "address": "Shady Creek Dr, Lincoln, NE 68516, USA", "postal": "68516"}, "bbox": [-96.64565903029151, 40.7573459697085, -96.64296106970849, 40.7600439302915]}, {"geometry": {"type": "Point", "coordinates": [-96.60719743415363, 40.78164833424306]}, "type": "Feature", "properties": {"city": "Lincoln", "neighborhood": "Crown Pointe", "country": "US", "address": "8340 Rockledge Rd, Lincoln, NE 68506, USA", "case_no": "NDOR210046026", "county": "Lancaster County", "state": "NE", "street": "Rockledge Rd", "status_code": 200, "postal": "68506", "housenumber": "8340"}, "bbox": [-96.60858498029152, 40.78031101970849, -96.60588701970852, 40.78300898029149]}, {"geometry": {"type": "Point", "coordinates": [-96.6823877, 40.7920618]}, "type": "Feature", "properties": {"city": "Lincoln", "neighborhood": "Near South", "status_code": 200, "country": "US", "case_no": "NDOR210001820", "county": "Lancaster County", "state": "NE", "street": "S 27th St", "address": "2020-2030 S 27th St, Lincoln, NE 68502, USA", "postal": "68502", "housenumber": "2020-2030"}, "bbox": [-96.6837548302915, 40.7908193697085, -96.6810568697085, 40.79351733029149]}, {"geometry": {"type": "Point", "coordinates": [-96.69682551258558, 40.813649918894406]}, "type": "Feature", "properties": {"city": "Lincoln", "neighborhood": "Downtown", "country": "US", "address": "1631-1699 O St, Lincoln, NE 68508, USA", "case_no": "NDOR211022127", "county": "Lancaster County", "state": "NE", "street": "US-34", "status_code": 200, "postal": "68508", "housenumber": "1631-1699"}, "bbox": [-96.69845723029151, 40.8122436197085, -96.69575926970849, 40.8149415802915]}, {"geometry": {"type": "Point", "coordinates": [-96.693571, 40.843474]}, "type": "Feature", "properties": {"city": "Lincoln", "neighborhood": "Belmont", "country": "US", "case_no": "B2-006738", "county": "Lancaster County", "state": "NE", "street": "Knox St", "address": "Knox Street & North 19th Street, Lincoln, NE 68521, USA", "postal": "68521"}, "bbox": {"northeast": [40.84592198029149, -96.69221201970849], "southwest": [40.84322401970849, -96.6949099802915]}}, {"geometry": {"type": "Point", "coordinates": [-96.66477694763763, 40.755346820759215]}, "type": "Feature", "properties": {"city": "Lincoln", "country": "US", "case_no": "B3-038838", "county": "Lancaster County", "state": "NE", "street": "Old Cheney Rd", "address": "3901 Old Cheney Road, Lincoln, NE 68516, USA", "postal": "68516", "housenumber": "3901"}, "bbox": {"northeast": [40.75616288029149, -96.6627309197085], "southwest": [40.7534649197085, -96.6654288802915]}}, {"geometry": {"type": "Point", "coordinates": [-96.687782, 40.739856]}, "type": "Feature", "properties": {"city": "Lincoln", "status_code": 200, "country": "US", "case_no": "NDOR209003344", "county": "Lancaster County", "state": "NE", "street": "Ridge Rd", "address": "6930 Ridge Rd, Lincoln, NE 68512, USA", "postal": "68512", "housenumber": "6930"}, "bbox": [-96.68913098029151, 40.73850701970849, -96.68643301970849, 40.74120498029149]}, {"geometry": {"type": "Point", "coordinates": [-96.7007483, 40.7382596]}, "type": "Feature", "properties": {"city": "Lincoln", "status_code": 200, "country": "US", "case_no": "NDOR209003348", "county": "Lancaster County", "state": "NE", "street": "Pine Lake Rd", "address": "1401 Pine Lake Rd, Lincoln, NE 68512, USA", "postal": "68512", "housenumber": "1401"}, "bbox": [-96.70209728029151, 40.7369106197085, -96.69939931970849, 40.7396085802915]}, {"geometry": {"type": "Point", "coordinates": [-96.68216699999999, 40.828052]}, "type": "Feature", "properties": {"city": "Lincoln", "neighborhood": "Clinton", "country": "US", "case_no": "B5-058795", "county": "Lancaster County", "state": "NE", "street": "Holdrege St", "address": "Holdrege St & N 27th St, Lincoln, NE 68503, USA", "postal": "68503"}, "bbox": {"northeast": [40.8294009802915, -96.6808180197085], "southwest": [40.8267030197085, -96.6835159802915]}}, {"geometry": {"type": "Point", "coordinates": [-96.605958, 40.794763]}, "type": "Feature", "properties": {"city": "Lincoln", "country": "US", "case_no": "B4-112515", "county": "Lancaster County", "state": "NE", "street": "S 84th St", "address": "South 84th Street & Norval Road, Lincoln, NE 68520, USA", "postal": "68520"}, "bbox": {"northeast": [40.7961473802915, -96.60467661970851], "southwest": [40.7934494197085, -96.60737458029152]}}, {"geometry": {"type": "Point", "coordinates": [-96.62127199999999, 40.820656]}, "type": "Feature", "properties": {"city": "Lincoln", "neighborhood": "Meadowlane", "status_code": 200, "country": "US", "case_no": "NDOR209054091", "county": "Lancaster County", "state": "NE", "street": "Vine St", "address": "7200 Vine St, Lincoln, NE 68505, USA", "postal": "68505", "housenumber": "7200"}, "bbox": [-96.6228493802915, 40.8192917697085, -96.62015141970848, 40.8219897302915]}, {"geometry": {"type": "Point", "coordinates": [-96.640062, 40.84864719999999]}, "type": "Feature", "properties": {"city": "Lincoln", "status_code": 200, "country": "US", "case_no": "NDOR210037720", "county": "Lancaster County", "state": "NE", "street": "Fremont St", "address": "5900 Fremont St, Lincoln, NE 68507, USA", "postal": "68507", "housenumber": "5900"}, "bbox": [-96.6414014802915, 40.8472840197085, -96.63870351970849, 40.8499819802915]}, {"geometry": {"type": "Point", "coordinates": [-96.650684, 40.842401]}, "type": "Feature", "properties": {"city": "Lincoln", "neighborhood": "University Place", "status_code": 200, "country": "US", "case_no": "NDOR211047042", "county": "Lancaster County", "state": "NE", "street": "Adams St", "address": "5005 Adams St, Lincoln, NE 68504, USA", "postal": "68504", "housenumber": "5005"}, "bbox": [-96.65203298029151, 40.84105201970849, -96.6493350197085, 40.84374998029149]}, {"geometry": {"type": "Point", "coordinates": [-96.682225, 40.813499]}, "type": "Feature", "properties": {"city": "Lincoln", "neighborhood": "Woods Park", "status_code": 200, "country": "US", "case_no": "B3-098706", "county": "Lancaster County", "state": "NE", "street": "N 27th St", "address": "112 N 27th St, Lincoln, NE 68503, USA", "postal": "68503", "housenumber": "112"}, "bbox": [-96.68360758029151, 40.81216381970849, -96.6809096197085, 40.81486178029149]}, {"geometry": {"type": "Point", "coordinates": [-96.6283014496523, 40.755280509585795]}, "type": "Feature", "properties": {"city": "Lincoln", "neighborhood": "Colonial Hills", "country": "US", "address": "6719-6801 Old Cheney Rd, Lincoln, NE 68516, USA", "case_no": "NDOR209029624", "county": "Lancaster County", "state": "NE", "street": "Old Cheney Rd", "status_code": 200, "postal": "68516", "housenumber": "6719-6801"}, "bbox": [-96.6302185302915, 40.7538613197085, -96.62752056970848, 40.7565592802915]}, {"geometry": {"type": "Point", "coordinates": [-96.67287359209254, 40.798776570033745]}, "type": "Feature", "properties": {"city": "Lincoln", "neighborhood": "Woods Park", "country": "US", "case_no": "B3-103944", "county": "Lancaster County", "state": "NE", "street": "A St", "address": "A Street & South 33rd Street, Lincoln, NE 68510, USA", "postal": "68510"}, "bbox": {"northeast": [40.8002899802915, -96.6715010197085], "southwest": [40.7975920197085, -96.67419898029151]}}, {"geometry": {"type": "Point", "coordinates": [-96.705511, 40.81476]}, "type": "Feature", "properties": {"city": "Lincoln", "neighborhood": "Downtown", "country": "US", "case_no": "B5-038629", "county": "Lancaster County", "state": "NE", "street": "P St", "address": "P Street & North 11th Street, Lincoln, NE 68508, USA", "postal": "68508"}, "bbox": {"northeast": [40.8161089802915, -96.70416201970849], "southwest": [40.8134110197085, -96.70685998029151]}}, {"geometry": {"type": "Point", "coordinates": [-96.630457, 40.825894]}, "type": "Feature", "properties": {"city": "Lincoln", "neighborhood": "Bethany", "status_code": 200, "country": "US", "case_no": "B2-107596", "county": "Lancaster County", "state": "NE", "street": "Dudley St", "address": "6601-6699 Dudley St, Lincoln, NE 68505, USA", "postal": "68505", "housenumber": "6601-6699"}, "bbox": [-96.6311717802915, 40.8245552697085, -96.62847381970847, 40.8272532302915]}, {"geometry": {"type": "Point", "coordinates": [-96.675264, 40.798842]}, "type": "Feature", "properties": {"city": "Lincoln", "country": "US", "case_no": "B2-050954", "county": "Lancaster County", "state": "NE", "street": "A St", "address": "A Street & Capitol Parkway, Lincoln, NE 68510, USA", "postal": "68510"}, "bbox": {"northeast": [40.8001875802915, -96.67401401970848], "southwest": [40.7974896197085, -96.6767119802915]}}, {"geometry": {"type": "Point", "coordinates": [-96.7059147, 40.8371969]}, "type": "Feature", "properties": {"city": "Lincoln", "status_code": 200, "country": "US", "case_no": "NDOR210030022", "county": "Lancaster County", "state": "NE", "street": "US-6", "address": "2438-2456 US-6, Lincoln, NE 68521, USA", "postal": "68521", "housenumber": "2438-2456"}, "bbox": [-96.7072816802915, 40.8360031697085, -96.7045837197085, 40.8387011302915]}, {"geometry": {"type": "Point", "coordinates": [-96.700523, 40.839578]}, "type": "Feature", "properties": {"city": "Lincoln", "status_code": 200, "country": "US", "case_no": "B2-083818", "county": "Lancaster County", "state": "NE", "street": "US-6", "address": "1359 Cornhusker Hwy, Lincoln, NE 68521, USA", "postal": "68521", "housenumber": "1359"}, "bbox": [-96.70410489999999, 40.83746326970851, -96.7002, 40.84016123029151]}, {"geometry": {"type": "Point", "coordinates": [-96.6538829, 40.7593589]}, "type": "Feature", "properties": {"city": "Lincoln", "status_code": 200, "country": "US", "case_no": "B6-102639", "county": "Lancaster County", "state": "NE", "street": "NE-2", "address": "NE-2 & S 48th St, Lincoln, NE 68516, USA", "postal": "68516"}, "bbox": [-96.65523188029151, 40.7580099197085, -96.6525339197085, 40.76070788029149]}, {"geometry": {"type": "Point", "coordinates": [-96.6059, 40.811867]}, "type": "Feature", "properties": {"city": "Lincoln", "country": "US", "case_no": "B4-049286", "county": "Lancaster County", "state": "NE", "street": "S 84th St", "address": "222 South 84th Street, Lincoln, NE 68510, USA", "postal": "68510", "housenumber": "222"}, "bbox": {"northeast": [40.81271188029149, -96.60245291970848], "southwest": [40.8100139197085, -96.6051508802915]}}, {"geometry": {"type": "Point", "coordinates": [-96.69848288775599, 40.82051249059257]}, "type": "Feature", "properties": {"city": "Lincoln", "country": "US", "address": "733 N 16th St, Lincoln, NE 68508, USA", "case_no": "NDOR210044540", "county": "Lancaster County", "state": "NE", "street": "N 16th St", "status_code": 200, "postal": "68508", "housenumber": "733"}, "bbox": [-96.69989198029151, 40.8192140197085, -96.6971940197085, 40.8219119802915]}, {"geometry": {"type": "Point", "coordinates": [-96.69703210543979, 40.81372544590948]}, "type": "Feature", "properties": {"city": "Lincoln", "neighborhood": "Downtown", "country": "US", "address": "1631-1699 O St, Lincoln, NE 68508, USA", "case_no": "NDOR211041292", "county": "Lancaster County", "state": "NE", "street": "US-34", "status_code": 200, "postal": "68508", "housenumber": "1631-1699"}, "bbox": [-96.69845723029151, 40.8122436197085, -96.69575926970849, 40.8149415802915]}, {"geometry": {"type": "Point", "coordinates": [-96.695755, 40.8169043]}, "type": "Feature", "properties": {"city": "Lincoln", "status_code": 200, "country": "US", "case_no": "NDOR210046072", "county": "Lancaster County", "state": "NE", "street": "R St", "address": "1701 R St, Lincoln, NE 68588, USA", "postal": "68588", "housenumber": "1701"}, "bbox": [-96.69755863029151, 40.8155676697085, -96.69486066970849, 40.8182656302915]}, {"geometry": {"type": "Point", "coordinates": [-96.7040825, 40.8047632]}, "type": "Feature", "properties": {"city": "Lincoln", "neighborhood": "Everett", "country": "US", "case_no": "B5-096340", "county": "Lancaster County", "state": "NE", "street": "F St", "address": "1200 F St, Lincoln, NE 68508, USA", "postal": "68508", "housenumber": "1200"}, "bbox": {"northeast": [40.8061050802915, -96.7027335697085], "southwest": [40.8034071197085, -96.7054315302915]}}, {"geometry": {"type": "Point", "coordinates": [-96.686668, 40.791418]}, "type": "Feature", "properties": {"city": "Lincoln", "neighborhood": "Country Club", "status_code": 200, "country": "US", "case_no": "NDOR212001214", "county": "Lancaster County", "state": "NE", "street": "South St", "address": "2419 South St, Lincoln, NE 68502, USA", "postal": "68502", "housenumber": "2419"}, "bbox": [-96.68801698029151, 40.7900690197085, -96.68531901970849, 40.7927669802915]}, {"geometry": {"type": "Point", "coordinates": [-96.6538061, 40.8341363]}, "type": "Feature", "properties": {"city": "Lincoln", "status_code": 200, "country": "US", "case_no": "NDOR208048729", "county": "Lancaster County", "state": "NE", "street": "N 48th St", "address": "2177-2209 N 48th St, Lincoln, NE 68504, USA", "postal": "68504", "housenumber": "2177-2209"}, "bbox": [-96.6551092802915, 40.8327597697085, -96.65241131970849, 40.8354577302915]}, {"geometry": {"type": "Point", "coordinates": [-96.65617, 40.791648]}, "type": "Feature", "properties": {"city": "Lincoln", "country": "US", "case_no": "B3-041362", "county": "Lancaster County", "state": "NE", "street": "S Cotner Blvd", "address": "South Cotner Boulevard & Franklin Street, Lincoln, NE 68506, USA", "postal": "68506"}, "bbox": {"northeast": [40.7948159802915, -96.65475401970849], "southwest": [40.7921180197085, -96.65745198029151]}}, {"geometry": {"type": "Point", "coordinates": [-96.6800559, 40.86060639999999]}, "type": "Feature", "properties": {"city": "Lincoln", "country": "US", "case_no": "B3-014254", "county": "Lancaster County", "state": "NE", "street": "North View Drive", "address": "North View Drive & Crossing Drive, Lincoln, NE 68521, USA", "postal": "68521"}, "bbox": {"northeast": [40.86195538029149, -96.67870691970849], "southwest": [40.85925741970849, -96.68140488029151]}}, {"geometry": {"type": "Point", "coordinates": [-96.683381, 40.8157485]}, "type": "Feature", "properties": {"city": "Lincoln", "neighborhood": "Hawley", "status_code": 200, "country": "US", "case_no": "NDOR209038917", "county": "Lancaster County", "state": "NE", "street": "Q St", "address": "2601-2699 Q St, Lincoln, NE 68503, USA", "postal": "68503", "housenumber": "2601-2699"}, "bbox": [-96.6844119802915, 40.8144125197085, -96.68171401970848, 40.8171104802915]}, {"geometry": {"type": "Point", "coordinates": [-96.60588071428461, 40.755287221828354]}, "type": "Feature", "properties": {"city": "Lincoln", "status_code": 200, "country": "US", "case_no": "B6-041605", "county": "Lancaster County", "state": "NE", "street": "S 84th St", "address": "S 84th St & Old Cheney Rd, Lincoln, NE 68526, USA", "postal": "68526"}, "bbox": [-96.6073503802915, 40.75382011970849, -96.6046524197085, 40.75651808029149]}, {"geometry": {"type": "Point", "coordinates": [-96.69938189999999, 40.8135882]}, "type": "Feature", "properties": {"city": "Lincoln", "neighborhood": "Downtown", "status_code": 200, "country": "US", "case_no": "NDOR211035552", "county": "Lancaster County", "state": "NE", "street": "US-34", "address": "1501-1551 O St, Lincoln, NE 68508, USA", "postal": "68508", "housenumber": "1501-1551"}, "bbox": [-96.7006392302915, 40.81225231970851, -96.6979412697085, 40.8149502802915]}, {"geometry": {"type": "Point", "coordinates": [-96.69683200000001, 40.80028]}, "type": "Feature", "properties": {"city": "Lincoln", "neighborhood": "Near South", "country": "US", "case_no": "B5-066393", "county": "Lancaster County", "state": "NE", "street": "S 17th St", "address": "S 17th St & B St, Lincoln, NE 68502, USA", "postal": "68502"}, "bbox": {"northeast": [40.8016289802915, -96.69548301970852], "southwest": [40.7989310197085, -96.69818098029153]}}, {"geometry": {"type": "Point", "coordinates": [-96.67767920000001, 40.8239137]}, "type": "Feature", "properties": {"city": "Lincoln", "neighborhood": "Clinton", "country": "US", "address": "N 30th St & Apple St, Lincoln, NE 68503, USA", "case_no": "B6-055552", "county": "Lancaster County", "state": "NE", "street": "N 30th St", "status_code": 200, "postal": "68503"}, "bbox": [-96.67902818029152, 40.8225647197085, -96.67633021970852, 40.82526268029149]}, {"geometry": {"type": "Point", "coordinates": [-96.650795, 40.755274]}, "type": "Feature", "properties": {"city": "Lincoln", "status_code": 200, "country": "US", "case_no": "B6-106250", "county": "Lancaster County", "state": "NE", "street": "Old Cheney Rd", "address": "Old Cheney Rd & S 50th St, Lincoln, NE 68516, USA", "postal": "68516"}, "bbox": [-96.65214398029151, 40.7539250197085, -96.6494460197085, 40.7566229802915]}, {"geometry": {"type": "Point", "coordinates": [-96.68246063207118, 40.82086178652974]}, "type": "Feature", "properties": {"city": "Lincoln", "neighborhood": "Hawley", "country": "US", "case_no": "B4-089553", "county": "Lancaster County", "state": "NE", "street": "N 27th St", "address": "North 27th Street & Vine Street, Lincoln, NE 68503, USA", "postal": "68503"}, "bbox": {"northeast": [40.82214198029151, -96.68088901970849], "southwest": [40.81944401970851, -96.68358698029151]}}, {"geometry": {"type": "Point", "coordinates": [-96.65482817207635, 40.82077596563298]}, "type": "Feature", "properties": {"city": "Lincoln", "neighborhood": "East Campus", "country": "US", "address": "4600-4700 Vine St, Lincoln, NE 68503, USA", "case_no": "NDOR209002317", "county": "Lancaster County", "state": "NE", "street": "Vine St", "status_code": 200, "postal": "68503", "housenumber": "4600-4700"}, "bbox": [-96.6561619802915, 40.8194570197085, -96.65346401970848, 40.8221549802915]}, {"geometry": {"type": "Point", "coordinates": [-96.6836573, 40.8388911]}, "type": "Feature", "properties": {"city": "Lincoln", "country": "US", "case_no": "B4-057275", "county": "Lancaster County", "state": "NE", "street": "Theresa St", "address": "2545 Theresa Street, Lincoln, NE 68521, USA", "postal": "68521", "housenumber": "2545"}, "bbox": {"northeast": [40.8402400802915, -96.68230831970848], "southwest": [40.8375421197085, -96.6850062802915]}}, {"geometry": {"type": "Point", "coordinates": [-96.68150589999999, 40.8062204]}, "type": "Feature", "properties": {"city": "Lincoln", "neighborhood": "Woods Park", "status_code": 200, "country": "US", "case_no": "NDOR208040963", "county": "Lancaster County", "state": "NE", "street": "Randolph St", "address": "2786 Randolph St, Lincoln, NE 68510, USA", "postal": "68510", "housenumber": "2786"}, "bbox": [-96.6826345802915, 40.80485806970849, -96.67993661970849, 40.80755603029149]}, {"geometry": {"type": "Point", "coordinates": [-96.7066492, 40.8092086]}, "type": "Feature", "properties": {"city": "Lincoln", "neighborhood": "Downtown", "status_code": 200, "country": "US", "case_no": "NDOR209044696", "county": "Lancaster County", "state": "NE", "street": "K St", "address": "1001-1099 K St, Lincoln, NE 68508, USA", "postal": "68508", "housenumber": "1001-1099"}, "bbox": [-96.70765148029149, 40.80787691970851, -96.70495351970848, 40.8105748802915]}, {"geometry": {"type": "Point", "coordinates": [-96.7086669, 40.7926227]}, "type": "Feature", "properties": {"city": "Lincoln", "neighborhood": "South Salt Creek", "status_code": 200, "country": "US", "case_no": "NDOR211037582", "county": "Lancaster County", "state": "NE", "street": "Plum St", "address": "827-899 Plum St, Lincoln, NE 68502, USA", "postal": "68502", "housenumber": "827-899"}, "bbox": [-96.71071138029151, 40.7912929697085, -96.7080134197085, 40.79399093029149]}, {"geometry": {"type": "Point", "coordinates": [-96.70575539066013, 40.80533220254185]}, "type": "Feature", "properties": {"city": "Lincoln", "neighborhood": "Everett", "country": "US", "address": "833 S 11th St, Lincoln, NE 68508, USA", "case_no": "NDOR211028323", "county": "Lancaster County", "state": "NE", "street": "S 11th St", "status_code": 200, "postal": "68508", "housenumber": "833"}, "bbox": [-96.7071951802915, 40.8038554197085, -96.70449721970849, 40.8065533802915]}, {"geometry": {"type": "Point", "coordinates": [-96.64998021052469, 40.81958552653375]}, "type": "Feature", "properties": {"city": "Lincoln", "neighborhood": "Culler", "country": "US", "address": "5101 Vine St, Lincoln, NE 68504, USA", "case_no": "B6-036506", "county": "Lancaster County", "state": "NE", "street": "Vine St", "status_code": 200, "postal": "68504", "housenumber": "5101"}, "bbox": [-96.65137408029152, 40.81824771970849, -96.64867611970851, 40.82094568029149]}, {"geometry": {"type": "Point", "coordinates": [-96.60590120872072, 40.828050843483695]}, "type": "Feature", "properties": {"city": "Lincoln", "neighborhood": "Sunrise Hills", "country": "US", "address": "8445 Holdrege St, Lincoln, NE 68505, USA", "case_no": "B2-066751", "county": "Lancaster County", "state": "NE", "street": "Holdrege St", "status_code": 200, "postal": "68505", "housenumber": "8445"}, "bbox": [-96.6065983802915, 40.82623341970849, -96.60390041970848, 40.82893138029149]}, {"geometry": {"type": "Point", "coordinates": [-96.68442300573615, 40.80624080273626]}, "type": "Feature", "properties": {"city": "Lincoln", "neighborhood": "Woods Park", "country": "US", "address": "2545 Randolph St, Lincoln, NE 68510, USA", "case_no": "NDOR211022675", "county": "Lancaster County", "state": "NE", "street": "Randolph St", "status_code": 200, "postal": "68510", "housenumber": "2545"}, "bbox": [-96.6857995802915, 40.8047644197085, -96.68310161970848, 40.8074623802915]}, {"geometry": {"type": "Point", "coordinates": [-96.696806, 40.786419]}, "type": "Feature", "properties": {"city": "Lincoln", "neighborhood": "Irvingdale", "country": "US", "case_no": "B6-001145", "county": "Lancaster County", "state": "NE", "street": "S 17th St", "address": "S 17th St & Harrison Ave, Lincoln, NE 68502, USA", "postal": "68502"}, "bbox": {"northeast": [40.78776798029149, -96.69545701970848], "southwest": [40.7850700197085, -96.6981549802915]}}, {"geometry": {"type": "Point", "coordinates": [-96.70495, 40.805082]}, "type": "Feature", "properties": {"city": "Lincoln", "neighborhood": "Everett", "status_code": 200, "country": "US", "case_no": "NDOR210040134", "county": "Lancaster County", "state": "NE", "street": "F St", "address": "1122 F St, Lincoln, NE 68508, USA", "postal": "68508", "housenumber": "1122"}, "bbox": [-96.7062989802915, 40.8037330197085, -96.70360101970849, 40.8064309802915]}, {"geometry": {"type": "Point", "coordinates": [-96.6966573, 40.7967129]}, "type": "Feature", "properties": {"city": "Lincoln", "neighborhood": "Near South", "status_code": 200, "country": "US", "case_no": "NDOR209049836", "county": "Lancaster County", "state": "NE", "street": "S 17th St", "address": "1600 S 17th St, Lincoln, NE 68502, USA", "postal": "68502", "housenumber": "1600"}, "bbox": [-96.6980253302915, 40.7953450697085, -96.6953273697085, 40.7980430302915]}, {"geometry": {"type": "Point", "coordinates": [-96.6839711, 40.8570346]}, "type": "Feature", "properties": {"city": "Lincoln", "neighborhood": "Landon's", "status_code": 200, "country": "US", "case_no": "NDOR208027519", "county": "Lancaster County", "state": "NE", "street": "Superior St", "address": "2547 Superior St, Lincoln, NE 68521, USA", "postal": "68521", "housenumber": "2547"}, "bbox": [-96.68521998029149, 40.8557013197085, -96.68252201970849, 40.8583992802915]}, {"geometry": {"type": "Point", "coordinates": [-96.70834794107645, 40.81466309303444]}, "type": "Feature", "properties": {"city": "Lincoln", "neighborhood": "Downtown", "country": "US", "case_no": "B5-089556", "county": "Lancaster County", "state": "NE", "street": "N 9th St", "address": "N 9th St & P St, Lincoln, NE 68508, USA", "postal": "68508"}, "bbox": {"northeast": [40.8161059802915, -96.7071250197085], "southwest": [40.8134080197085, -96.7098229802915]}}, {"geometry": {"type": "Point", "coordinates": [-96.7013865, 40.7962235]}, "type": "Feature", "properties": {"city": "Lincoln", "neighborhood": "Near South", "status_code": 200, "country": "US", "case_no": "B6-106683", "county": "Lancaster County", "state": "NE", "street": "S 14th St", "address": "S 14th St & Sumner St, Lincoln, NE 68502, USA", "postal": "68502"}, "bbox": [-96.70273548029151, 40.7948745197085, -96.7000375197085, 40.7975724802915]}, {"geometry": {"type": "Point", "coordinates": [-96.6547733, 40.8135409]}, "type": "Feature", "properties": {"city": "Lincoln", "neighborhood": "Hartley", "status_code": 200, "country": "US", "case_no": "B6-073877", "county": "Lancaster County", "state": "NE", "street": "E O St", "address": "4718 E O St, Lincoln, NE 68510, USA", "postal": "68510", "housenumber": "4718"}, "bbox": [-96.65612228029151, 40.81218481970851, -96.6534243197085, 40.8148827802915]}, {"geometry": {"type": "Point", "coordinates": [-96.69470849999999, 40.8704388]}, "type": "Feature", "properties": {"city": "Lincoln", "status_code": 200, "country": "US", "case_no": "NDOR209047520", "county": "Lancaster County", "state": "NE", "street": "Kennedy Dr", "address": "1821-1827 Kennedy Dr, Lincoln, NE 68521, USA", "postal": "68521", "housenumber": "1821-1827"}, "bbox": [-96.6958961302915, 40.86917826970849, -96.6931981697085, 40.87187623029149]}, {"geometry": {"type": "Point", "coordinates": [-96.6588685, 40.8571388]}, "type": "Feature", "properties": {"city": "Lincoln", "neighborhood": "Sunset Acres", "country": "US", "address": "Superior St & N 44th St, Lincoln, NE 68504, USA", "case_no": "B6-073870", "county": "Lancaster County", "state": "NE", "street": "Superior St", "status_code": 200, "postal": "68504"}, "bbox": [-96.66021748029151, 40.85578981970851, -96.65751951970849, 40.8584877802915]}, {"geometry": {"type": "Point", "coordinates": [-96.6632968785327, 40.806303489537946]}, "type": "Feature", "properties": {"city": "Lincoln", "neighborhood": "40th&A", "status_code": 200, "country": "US", "case_no": "B6-118033", "county": "Lancaster County", "state": "NE", "street": "S 40th St", "address": "S 40th St & Randolph St, Lincoln, NE 68510, USA", "postal": "68510"}, "bbox": [-96.66460198029152, 40.8048410197085, -96.66190401970852, 40.8075389802915]}, {"geometry": {"type": "Point", "coordinates": [-96.7027636, 40.791766]}, "type": "Feature", "properties": {"city": "Lincoln", "neighborhood": "Irvingdale", "status_code": 200, "country": "US", "case_no": "NDOR210040350", "county": "Lancaster County", "state": "NE", "street": "South St", "address": "1299 South St, Lincoln, NE 68502, USA", "postal": "68502", "housenumber": "1299"}, "bbox": [-96.70408358029151, 40.7904276197085, -96.70138561970849, 40.7931255802915]}, {"geometry": {"type": "Point", "coordinates": [-96.706929, 40.826151]}, "type": "Feature", "properties": {"city": "Lincoln", "neighborhood": "North Bottoms", "country": "US", "case_no": "B3-058476", "county": "Lancaster County", "state": "NE", "street": "N 10th St", "address": "North 10th Street & New Hampshire Street, Lincoln, NE 68508, USA", "postal": "68508"}, "bbox": {"northeast": [40.8279849802915, -96.70558501970848], "southwest": [40.8252870197085, -96.7082829802915]}}, {"geometry": {"type": "Point", "coordinates": [-96.65349308609919, 40.84871679771957]}, "type": "Feature", "properties": {"city": "Lincoln", "neighborhood": "University Place", "country": "US", "case_no": "B5-032078", "county": "Lancaster County", "state": "NE", "street": "N 48th St", "address": "North 48th Street & Fremont Street, Lincoln, NE 68504, USA", "postal": "68504"}, "bbox": {"northeast": [40.84998958029149, -96.6522730197085], "southwest": [40.84729161970849, -96.65497098029151]}}, {"geometry": {"type": "Point", "coordinates": [-96.6873311, 40.7917195]}, "type": "Feature", "properties": {"city": "Lincoln", "neighborhood": "Near South", "status_code": 200, "country": "US", "case_no": "NDOR210023032", "county": "Lancaster County", "state": "NE", "street": "South St", "address": "2350-2398 South St, Lincoln, NE 68502, USA", "postal": "68502", "housenumber": "2350-2398"}, "bbox": [-96.6888648302915, 40.7903557197085, -96.68616686970849, 40.7930536802915]}, {"geometry": {"type": "Point", "coordinates": [-96.65319699999999, 40.84791000000001]}, "type": "Feature", "properties": {"city": "Lincoln", "neighborhood": "University Place", "status_code": 200, "country": "US", "case_no": "NDOR209023212", "county": "Lancaster County", "state": "NE", "street": "N 48th St", "address": "3500 N 48th St, Lincoln, NE 68504, USA", "postal": "68504", "housenumber": "3500"}, "bbox": [-96.65454598029149, 40.84656101970851, -96.65184801970848, 40.84925898029151]}, {"geometry": {"type": "Point", "coordinates": [-96.65255979999999, 40.7989161]}, "type": "Feature", "properties": {"city": "Lincoln", "status_code": 200, "country": "US", "case_no": "NDOR211042330", "county": "Lancaster County", "state": "NE", "street": "A St", "address": "4869-4899 A St, Lincoln, NE 68510, USA", "postal": "68510", "housenumber": "4869-4899"}, "bbox": [-96.6540070302915, 40.7975817197085, -96.65130906970849, 40.8002796802915]}, {"geometry": {"type": "Point", "coordinates": [-96.64427326298564, 40.76293007455532]}, "type": "Feature", "properties": {"city": "Lincoln", "neighborhood": "Colonial Hills", "country": "US", "address": "5000-5010 S 56th St, Lincoln, NE 68516, USA", "case_no": "NDOR211044479", "county": "Lancaster County", "state": "NE", "street": "S 56th St", "status_code": 200, "postal": "68516", "housenumber": "5000-5010"}, "bbox": [-96.6456884802915, 40.7612958197085, -96.64299051970849, 40.7639937802915]}, {"geometry": {"type": "Point", "coordinates": [-96.65888369999999, 40.838271]}, "type": "Feature", "properties": {"city": "Lincoln", "neighborhood": "University Place", "status_code": 200, "country": "US", "case_no": "NDOR211000408", "county": "Lancaster County", "state": "NE", "street": "N 44th St", "address": "2501-2599 N 44th St, Lincoln, NE 68504, USA", "postal": "68504", "housenumber": "2501-2599"}, "bbox": [-96.6602129802915, 40.8364345197085, -96.6575150197085, 40.83913248029149]}, {"geometry": {"type": "Point", "coordinates": [-96.67280106706644, 40.79900399903447]}, "type": "Feature", "properties": {"city": "Lincoln", "neighborhood": "Woods Park", "country": "US", "case_no": "B3-042103", "county": "Lancaster County", "state": "NE", "street": "A St", "address": "A Street & South 33rd Street, Lincoln, NE 68510, USA", "postal": "68510"}, "bbox": {"northeast": [40.8002899802915, -96.6715010197085], "southwest": [40.7975920197085, -96.67419898029151]}}, {"geometry": {"type": "Point", "coordinates": [-96.70846197464394, 40.81472779134136]}, "type": "Feature", "properties": {"city": "Lincoln", "neighborhood": "Downtown", "country": "US", "case_no": "B5-030562", "county": "Lancaster County", "state": "NE", "street": "N 9th St", "address": "North 9th Street & P Street, Lincoln, NE 68508, USA", "postal": "68508"}, "bbox": {"northeast": [40.8161059802915, -96.7071250197085], "southwest": [40.8134080197085, -96.7098229802915]}}, {"geometry": {"type": "Point", "coordinates": [-96.682137, 40.833462]}, "type": "Feature", "properties": {"city": "Lincoln", "neighborhood": "Clinton", "country": "US", "case_no": "B3-050643", "county": "Lancaster County", "state": "NE", "street": "N 27th St", "address": "North 27th Street & Fair Street, Lincoln, NE 68503, USA", "postal": "68503"}, "bbox": {"northeast": [40.8329813802915, -96.68089661970849], "southwest": [40.8302834197085, -96.68359458029151]}}, {"geometry": {"type": "Point", "coordinates": [-96.696707, 40.798013]}, "type": "Feature", "properties": {"city": "Lincoln", "neighborhood": "Near South", "country": "US", "case_no": "B2-081321", "county": "Lancaster County", "state": "NE", "street": "S 17th St", "address": "South 17th Street & Washington Street, Lincoln, NE 68502, USA", "postal": "68502"}, "bbox": {"northeast": [40.7993749802915, -96.69530901970852], "southwest": [40.7966770197085, -96.69800698029152]}}, {"geometry": {"type": "Point", "coordinates": [-96.63172899999999, 40.8486462]}, "type": "Feature", "properties": {"city": "Lincoln", "status_code": 200, "country": "US", "case_no": "NDOR211036004", "county": "Lancaster County", "state": "NE", "street": "Fremont St", "address": "6498 Fremont St, Lincoln, NE 68507, USA", "postal": "68507", "housenumber": "6498"}, "bbox": [-96.6337369802915, 40.8472830197085, -96.6310390197085, 40.84998098029149]}, {"geometry": {"type": "Point", "coordinates": [-96.716078, 40.785527]}, "type": "Feature", "properties": {"city": "Lincoln", "neighborhood": "South Salt Creek", "status_code": 200, "country": "US", "case_no": "B3-005893", "county": "Lancaster County", "state": "NE", "street": "NE-2", "address": "301-375 Van Dorn St, Lincoln, NE 68502, USA", "postal": "68502", "housenumber": "301-375"}, "bbox": [-96.7188402, 40.7845305197085, -96.71584500000002, 40.7872284802915]}, {"geometry": {"type": "Point", "coordinates": [-96.6824553, 40.808018]}, "type": "Feature", "properties": {"city": "Lincoln", "neighborhood": "Woods Park", "status_code": 200, "country": "US", "case_no": "NDOR209035484", "county": "Lancaster County", "state": "NE", "street": "S 27th St", "address": "601 S 27th St, Lincoln, NE 68510, USA", "postal": "68510", "housenumber": "601"}, "bbox": [-96.6837869802915, 40.8062495697085, -96.6810890197085, 40.8089475302915]}, {"geometry": {"type": "Point", "coordinates": [-96.64703399999999, 40.78851299999999]}, "type": "Feature", "properties": {"city": "Lincoln", "status_code": 200, "country": "US", "case_no": "NDOR208041101", "county": "Lancaster County", "state": "NE", "street": "Normal Blvd", "address": "5330 Normal Blvd, Lincoln, NE 68506, USA", "postal": "68506", "housenumber": "5330"}, "bbox": [-96.6483829802915, 40.78716401970849, -96.6456850197085, 40.78986198029149]}, {"geometry": {"type": "Point", "coordinates": [-96.6824565632998, 40.80246271912567]}, "type": "Feature", "properties": {"city": "Lincoln", "neighborhood": "Woods Park", "country": "US", "case_no": "B2-041184", "county": "Lancaster County", "state": "NE", "street": "S 27th St", "address": "South 27th Street & Capitol Parkway, Lincoln, NE 68510, USA", "postal": "68510"}, "bbox": {"northeast": [40.80396598029149, -96.68110061970852], "southwest": [40.8012680197085, -96.68379858029152]}}, {"geometry": {"type": "Point", "coordinates": [-96.6248521, 40.8569644]}, "type": "Feature", "properties": {"city": "Lincoln", "status_code": 200, "country": "US", "case_no": "B6-084801", "county": "Lancaster County", "state": "NE", "street": "Havelock Ave", "address": "Havelock Ave & N 70th St, Lincoln, NE 68507, USA", "postal": "68507"}, "bbox": [-96.62620108029151, 40.85561541970849, -96.6235031197085, 40.85831338029149]}, {"geometry": {"type": "Point", "coordinates": [-96.6920975, 40.7700108]}, "type": "Feature", "properties": {"city": "Lincoln", "neighborhood": "Indian Village", "country": "US", "case_no": "B4-058969", "county": "Lancaster County", "state": "NE", "street": "NE-2", "address": "Nebraska 2 & South 20th Street, Lincoln, NE 68502, USA", "postal": "68502"}, "bbox": {"northeast": [40.7713597802915, -96.69074851970849], "southwest": [40.7686618197085, -96.69344648029151]}}, {"geometry": {"type": "Point", "coordinates": [-96.644477, 40.826852]}, "type": "Feature", "properties": {"city": "Lincoln", "neighborhood": "Culler", "status_code": 200, "country": "US", "case_no": "NDOR211021986", "county": "Lancaster County", "state": "NE", "street": "N 56th St", "address": "1311 N 56th St, Lincoln, NE 68504, USA", "postal": "68504", "housenumber": "1311"}, "bbox": [-96.6458259802915, 40.82550301970849, -96.6431280197085, 40.82820098029149]}, {"geometry": {"type": "Point", "coordinates": [-96.693911, 40.812486]}, "type": "Feature", "properties": {"city": "Lincoln", "neighborhood": "Downtown", "status_code": 200, "country": "US", "case_no": "B4-035352", "county": "Lancaster County", "state": "NE", "street": "N St", "address": "1899 N St, Lincoln, NE 68508, USA", "postal": "68508", "housenumber": "1899"}, "bbox": [-96.6953272302915, 40.8111590697085, -96.69262926970849, 40.81385703029149]}, {"geometry": {"type": "Point", "coordinates": [-96.702613, 40.811397]}, "type": "Feature", "properties": {"city": "Lincoln", "neighborhood": "Downtown", "country": "US", "address": "S 13th St & M St, Lincoln, NE 68508, USA", "case_no": "B6-053058", "county": "Lancaster County", "state": "NE", "street": "S 13th St", "status_code": 200, "postal": "68508"}, "bbox": [-96.70396198029151, 40.8100480197085, -96.7012640197085, 40.8127459802915]}, {"geometry": {"type": "Point", "coordinates": [-96.6727212940362, 40.802250149786]}, "type": "Feature", "properties": {"city": "Lincoln", "neighborhood": "Woods Park", "country": "US", "address": "3301 D St, Lincoln, NE 68510, USA", "case_no": "NDOR208037114", "county": "Lancaster County", "state": "NE", "street": "D St", "status_code": 200, "postal": "68510", "housenumber": "3301"}, "bbox": [-96.6739879802915, 40.8010400197085, -96.6712900197085, 40.8037379802915]}, {"geometry": {"type": "Point", "coordinates": [-96.691093, 40.857232]}, "type": "Feature", "properties": {"city": "Lincoln", "neighborhood": "Landon's", "country": "US", "case_no": "B2-039103", "county": "Lancaster County", "state": "NE", "street": "Superior St", "address": "Superior Street & North 20th Street, Lincoln, NE 68521, USA", "postal": "68521"}, "bbox": {"northeast": [40.8585377802915, -96.6897123197085], "southwest": [40.8558398197085, -96.69241028029151]}}, {"geometry": {"type": "Point", "coordinates": [-96.68926019999999, 40.798967]}, "type": "Feature", "properties": {"city": "Lincoln", "neighborhood": "Near South", "status_code": 200, "country": "US", "case_no": "NDOR210028457", "county": "Lancaster County", "state": "NE", "street": "S 22nd St", "address": "1398 S 22nd St, Lincoln, NE 68502, USA", "postal": "68502", "housenumber": "1398"}, "bbox": [-96.6906249802915, 40.7981275197085, -96.6879270197085, 40.80082548029149]}, {"geometry": {"type": "Point", "coordinates": [-96.701585, 40.783514]}, "type": "Feature", "properties": {"city": "Lincoln", "neighborhood": "Indian Village", "country": "US", "case_no": "B3-040182", "county": "Lancaster County", "state": "NE", "street": "S 14th St", "address": "South 14th Street & Otoe Street, Lincoln, NE 68502, USA", "postal": "68502"}, "bbox": {"northeast": [40.7848711802915, -96.70024031970848], "southwest": [40.7821732197085, -96.7029382802915]}}, {"geometry": {"type": "Point", "coordinates": [-96.68781709999999, 40.8205211]}, "type": "Feature", "properties": {"city": "Lincoln", "neighborhood": "Hawley", "status_code": 200, "country": "US", "case_no": "NDOR210028450", "county": "Lancaster County", "state": "NE", "street": "N 23rd St", "address": "760 N 23rd St, Lincoln, NE 68503, USA", "postal": "68503", "housenumber": "760"}, "bbox": [-96.6891660802915, 40.8191721197085, -96.6864681197085, 40.8218700802915]}, {"geometry": {"type": "Point", "coordinates": [-96.6967709, 40.812449]}, "type": "Feature", "properties": {"city": "Lincoln", "neighborhood": "Downtown", "status_code": 200, "country": "US", "case_no": "NDOR208045312", "county": "Lancaster County", "state": "NE", "street": "S 17th St", "address": "201-227 S 17th St, Lincoln, NE 68508, USA", "postal": "68508", "housenumber": "201-227"}, "bbox": [-96.69810398029152, 40.8105745197085, -96.6954060197085, 40.8132724802915]}, {"geometry": {"type": "Point", "coordinates": [-96.69723053829084, 40.787540867652254]}, "type": "Feature", "properties": {"city": "Lincoln", "neighborhood": "Irvingdale", "country": "US", "address": "1688 Perkins Blvd, Lincoln, NE 68502, USA", "case_no": "NDOR208045310", "county": "Lancaster County", "state": "NE", "street": "Perkins Blvd", "status_code": 200, "postal": "68502", "housenumber": "1688"}, "bbox": [-96.6985109802915, 40.7860790197085, -96.69581301970848, 40.78877698029149]}, {"geometry": {"type": "Point", "coordinates": [-96.6060961, 40.8149051]}, "type": "Feature", "properties": {"city": "Lincoln", "status_code": 200, "country": "US", "case_no": "NDOR208039235", "county": "Lancaster County", "state": "NE", "street": "N 84th St", "address": "189-299 N 84th St, Lincoln, NE 68505, USA", "postal": "68505", "housenumber": "189-299"}, "bbox": [-96.6074285302915, 40.8132049197085, -96.6047305697085, 40.8159028802915]}, {"geometry": {"type": "Point", "coordinates": [-96.7084891, 40.810318]}, "type": "Feature", "properties": {"city": "Lincoln", "neighborhood": "South Salt Creek", "country": "US", "case_no": "B5-003845", "county": "Lancaster County", "state": "NE", "street": "S 9th St", "address": "South 9th Street & L Street, Lincoln, NE 68508, USA", "postal": "68508"}, "bbox": {"northeast": [40.8116669802915, -96.70714011970848], "southwest": [40.8089690197085, -96.7098380802915]}}, {"geometry": {"type": "Point", "coordinates": [-96.6540009, 40.839126]}, "type": "Feature", "properties": {"city": "Lincoln", "neighborhood": "University Place", "country": "US", "case_no": "B5-086728", "county": "Lancaster County", "state": "NE", "street": "N 48th St", "address": "2649 N 48th St, Lincoln, NE 68504, USA", "postal": "68504", "housenumber": "2649"}, "bbox": {"northeast": [40.8404749802915, -96.65265191970849], "southwest": [40.8377770197085, -96.65534988029151]}}, {"geometry": {"type": "Point", "coordinates": [-96.701104, 40.81359]}, "type": "Feature", "properties": {"city": "Lincoln", "neighborhood": "Downtown", "country": "US", "case_no": "B4-062148", "county": "Lancaster County", "state": "NE", "street": "E O St", "address": "East O Street & North 14th Street, Lincoln, NE 68508, USA", "postal": "68508"}, "bbox": {"northeast": [40.8149579802915, -96.69981261970848], "southwest": [40.8122600197085, -96.70251058029149]}}, {"geometry": {"type": "Point", "coordinates": [-96.66686209999999, 40.7844211]}, "type": "Feature", "properties": {"city": "Lincoln", "country": "US", "address": "Van Dorn St & S 38th St, Lincoln, NE 68506, USA", "case_no": "B6-093266", "county": "Lancaster County", "state": "NE", "street": "Van Dorn St", "status_code": 200, "postal": "68506"}, "bbox": [-96.66821108029148, 40.78307211970851, -96.66551311970848, 40.78577008029151]}, {"geometry": {"type": "Point", "coordinates": [-96.6634562, 40.7523161]}, "type": "Feature", "properties": {"city": "Lincoln", "country": "US", "case_no": "B5-106397", "county": "Lancaster County", "state": "NE", "street": "S 40th St", "address": "S 40th St & Duxhall Dr, Lincoln, NE 68516, USA", "postal": "68516"}, "bbox": {"northeast": [40.7536650802915, -96.6621072197085], "southwest": [40.75096711970851, -96.66480518029151]}}, {"geometry": {"type": "Point", "coordinates": [-96.70116480000002, 40.8097679]}, "type": "Feature", "properties": {"city": "Lincoln", "neighborhood": "Downtown", "status_code": 200, "country": "US", "case_no": "NDOR208025037", "county": "Lancaster County", "state": "NE", "street": "S 14th St", "address": "400-498 S 14th St, Lincoln, NE 68508, USA", "postal": "68508", "housenumber": "400-498"}, "bbox": [-96.7025329302915, 40.8083880697085, -96.69983496970849, 40.81108603029149]}, {"geometry": {"type": "Point", "coordinates": [-96.718858, 40.802567]}, "type": "Feature", "properties": {"city": "Lincoln", "neighborhood": "South Salt Creek", "country": "US", "case_no": "B3-086894", "county": "Lancaster County", "state": "NE", "street": "D St", "address": "D Street & South 2nd Street, Lincoln, NE 68502, USA", "postal": "68502"}, "bbox": {"northeast": [40.8039321802915, -96.71751871970851], "southwest": [40.8012342197085, -96.72021668029151]}}, {"geometry": {"type": "Point", "coordinates": [-96.705961, 40.84293]}, "type": "Feature", "properties": {"city": "Lincoln", "neighborhood": "Belmont", "country": "US", "case_no": "B3-077193", "county": "Lancaster County", "state": "NE", "street": "N 11th St", "address": "North 11th Street & Butler Avenue, Lincoln, NE 68521, USA", "postal": "68521"}, "bbox": {"northeast": [40.8433569802915, -96.70458001970849], "southwest": [40.8406590197085, -96.70727798029151]}}, {"geometry": {"type": "Point", "coordinates": [-96.70997729999999, 40.85503509999999]}, "type": "Feature", "properties": {"city": "Lincoln", "neighborhood": "Belmont", "status_code": 200, "country": "US", "case_no": "NDOR211034410", "county": "Lancaster County", "state": "NE", "street": "N 7th St", "address": "4400 N 7th St, Lincoln, NE 68521, USA", "postal": "68521", "housenumber": "4400"}, "bbox": [-96.7113262802915, 40.85368611970849, -96.7086283197085, 40.85638408029149]}, {"geometry": {"type": "Point", "coordinates": [-96.6553984, 40.777028]}, "type": "Feature", "properties": {"city": "Lincoln", "status_code": 200, "country": "US", "case_no": "NDOR210027116", "county": "Lancaster County", "state": "NE", "street": "S 47th St", "address": "3600-3646 S 47th St, Lincoln, NE 68506, USA", "postal": "68506", "housenumber": "3600-3646"}, "bbox": [-96.65676793029151, 40.7754534697085, -96.65406996970849, 40.7781514302915]}, {"geometry": {"type": "Point", "coordinates": [-96.6538382, 40.787339]}, "type": "Feature", "properties": {"city": "Lincoln", "status_code": 200, "country": "US", "case_no": "NDOR210046170", "county": "Lancaster County", "state": "NE", "street": "S 48th St", "address": "2445-2487 S 48th St, Lincoln, NE 68506, USA", "postal": "68506", "housenumber": "2445-2487"}, "bbox": [-96.6551683802915, 40.7858974697085, -96.6524704197085, 40.7885954302915]}, {"geometry": {"type": "Point", "coordinates": [-96.68224, 40.820693]}, "type": "Feature", "properties": {"city": "Lincoln", "neighborhood": "Hawley", "country": "US", "address": "N 27th St & Vine St, Lincoln, NE 68503, USA", "case_no": "B7-018233", "county": "Lancaster County", "state": "NE", "street": "N 27th St", "status_code": 200, "postal": "68503"}, "bbox": [-96.6835889802915, 40.8193440197085, -96.68089101970848, 40.82204198029149]}, {"geometry": {"type": "Point", "coordinates": [-96.65374519999999, 40.8208033]}, "type": "Feature", "properties": {"city": "Lincoln", "neighborhood": "East Campus", "status_code": 200, "country": "US", "case_no": "NDOR209035649", "county": "Lancaster County", "state": "NE", "street": "Vine St", "address": "Vine St, Lincoln, NE 68504, USA", "postal": "68504"}, "bbox": [-96.6550942302915, 40.8194543197085, -96.65239626970848, 40.8221522802915]}, {"geometry": {"type": "Point", "coordinates": [-96.6533356, 40.7384864]}, "type": "Feature", "properties": {"city": "Lincoln", "country": "US", "case_no": "B5-048423", "county": "Lancaster County", "state": "NE", "street": "Beaver Creek Ln", "address": "Beaver Creek Lane & Buffalo Creek Road, Lincoln, NE 68516, USA", "postal": "68516"}, "bbox": {"northeast": [40.7398353802915, -96.65198661970851], "southwest": [40.7371374197085, -96.65468458029152]}}, {"geometry": {"type": "Point", "coordinates": [-96.672853, 40.827551]}, "type": "Feature", "properties": {"city": "Lincoln", "neighborhood": "Clinton", "country": "US", "case_no": "B3-064234", "county": "Lancaster County", "state": "NE", "street": "Holdrege St", "address": "University of Nebraska-Lincoln, University of Nebraska-Lincoln: East Campus, Holdrege Street & North 33rd Street, Lincoln, NE 68503, USA", "postal": "68503"}, "bbox": {"northeast": [40.8293699802915, -96.67151201970849], "southwest": [40.8266720197085, -96.6742099802915]}}, {"geometry": {"type": "Point", "coordinates": [-96.610146, 40.8065767]}, "type": "Feature", "properties": {"city": "Lincoln", "status_code": 200, "country": "US", "case_no": "NDOR211027290", "county": "Lancaster County", "state": "NE", "street": "Sandalwood Dr", "address": "8101 Sandalwood Dr, Lincoln, NE 68510, USA", "postal": "68510", "housenumber": "8101"}, "bbox": [-96.6109928802915, 40.8052410197085, -96.6082949197085, 40.8079389802915]}, {"geometry": {"type": "Point", "coordinates": [-96.65411, 40.842558]}, "type": "Feature", "properties": {"city": "Lincoln", "neighborhood": "University Place", "country": "US", "case_no": "B4-043454", "county": "Lancaster County", "state": "NE", "street": "Adams St", "address": "4750 Adams Street, Lincoln, NE 68504, USA", "postal": "68504", "housenumber": "4750"}, "bbox": {"northeast": [40.8439190802915, -96.6526255197085], "southwest": [40.8412211197085, -96.6553234802915]}}, {"geometry": {"type": "Point", "coordinates": [-96.62550687625844, 40.79755048767587]}, "type": "Feature", "properties": {"city": "Lincoln", "country": "US", "address": "1549 S 70th St, Lincoln, NE 68506, USA", "case_no": "NDOR210039040", "county": "Lancaster County", "state": "NE", "street": "S 70th St", "status_code": 200, "postal": "68506", "housenumber": "1549"}, "bbox": [-96.62692158029151, 40.7962245197085, -96.6242236197085, 40.79892248029149]}, {"geometry": {"type": "Point", "coordinates": [-96.7041861, 40.8155902]}, "type": "Feature", "properties": {"city": "Lincoln", "neighborhood": "Downtown", "status_code": 200, "country": "US", "case_no": "NDOR212001076", "county": "Lancaster County", "state": "NE", "address": "Hewit Place, Lincoln, NE 68508, USA", "postal": "68508"}, "bbox": [-96.70553508029151, 40.81424121970849, -96.70283711970849, 40.81693918029149]}, {"geometry": {"type": "Point", "coordinates": [-96.607662, 40.828022]}, "type": "Feature", "properties": {"city": "Lincoln", "neighborhood": "Meadowlane", "country": "US", "case_no": "B2-020123", "county": "Lancaster County", "state": "NE", "street": "Holdrege St", "address": "8300 Holdrege Street, Lincoln, NE 68505, USA", "postal": "68505", "housenumber": "8300"}, "bbox": {"northeast": [40.8293562802915, -96.6062899697085], "southwest": [40.8266583197085, -96.6089879302915]}}, {"geometry": {"type": "Point", "coordinates": [-96.672809, 40.817084]}, "type": "Feature", "properties": {"city": "Lincoln", "neighborhood": "Hartley", "country": "US", "case_no": "B2-022418", "county": "Lancaster County", "state": "NE", "street": "N 33rd St", "address": "North 33rd Street & Q Street, Lincoln, NE 68503, USA", "postal": "68503"}, "bbox": {"northeast": [40.8168769802915, -96.67148801970849], "southwest": [40.8141790197085, -96.67418598029151]}}, {"geometry": {"type": "Point", "coordinates": [-96.682414, 40.797915]}, "type": "Feature", "properties": {"city": "Lincoln", "neighborhood": "Antelope Park", "status_code": 200, "country": "US", "case_no": "B2-103406", "county": "Lancaster County", "state": "NE", "street": "S 27th St", "address": "1500 S 27th St, Lincoln, NE 68502, USA", "postal": "68502", "housenumber": "1500"}, "bbox": [-96.68346488029151, 40.7965380197085, -96.68076691970849, 40.7992359802915]}, {"geometry": {"type": "Point", "coordinates": [-96.65388159377835, 40.82792262419266]}, "type": "Feature", "properties": {"city": "Lincoln", "neighborhood": "East Campus", "country": "US", "address": "4799 Holdrege St, Lincoln, NE 68503, USA", "case_no": "NDOR210036769", "county": "Lancaster County", "state": "NE", "street": "Holdrege St", "status_code": 200, "postal": "68503", "housenumber": "4799"}, "bbox": [-96.65515938029151, 40.8266229197085, -96.65246141970849, 40.8293208802915]}, {"geometry": {"type": "Point", "coordinates": [-96.672856, 40.780208]}, "type": "Feature", "properties": {"city": "Lincoln", "country": "US", "case_no": "B3-022324", "county": "Lancaster County", "state": "NE", "street": "Sheridan Blvd", "address": "Sheridan Boulevard & South 33rd Street, Lincoln, NE 68506, USA", "postal": "68506"}, "bbox": {"northeast": [40.78139528029151, -96.67138601970849], "southwest": [40.77869731970851, -96.6740839802915]}}, {"geometry": {"type": "Point", "coordinates": [-96.720915, 40.813682]}, "type": "Feature", "properties": {"city": "Lincoln", "status_code": 200, "country": "US", "case_no": "B2-056066", "county": "Lancaster County", "state": "NE", "street": "W O St", "address": "162-298 W O St, Lincoln, NE 68528, USA", "postal": "68528", "housenumber": "162-298"}, "bbox": [-96.7229298802915, 40.8123230197085, -96.7202319197085, 40.81502098029149]}, {"geometry": {"type": "Point", "coordinates": [-96.67764969999999, 40.827993]}, "type": "Feature", "properties": {"city": "Lincoln", "neighborhood": "Clinton", "status_code": 200, "country": "US", "case_no": "NDOR208045703", "county": "Lancaster County", "state": "NE", "street": "N 30th St", "address": "1427-1499 N 30th St, Lincoln, NE 68503, USA", "postal": "68503", "housenumber": "1427-1499"}, "bbox": [-96.67897898029149, 40.8262005197085, -96.67628101970848, 40.8288984802915]}, {"geometry": {"type": "Point", "coordinates": [-96.6253655, 40.7629061]}, "type": "Feature", "properties": {"city": "Lincoln", "status_code": 200, "country": "US", "case_no": "NDOR209049817", "county": "Lancaster County", "state": "NE", "street": "S 70th St", "address": "4989-5077 S 70th St, Lincoln, NE 68516, USA", "postal": "68516", "housenumber": "4989-5077"}, "bbox": [-96.6266970802915, 40.7611446197085, -96.6239991197085, 40.7638425802915]}, {"geometry": {"type": "Point", "coordinates": [-96.653638, 40.84817]}, "type": "Feature", "properties": {"city": "Lincoln", "neighborhood": "University Place", "status_code": 200, "country": "US", "case_no": "NDOR211031862", "county": "Lancaster County", "state": "NE", "street": "N 48th St", "address": "3505-3533 N 48th St, Lincoln, NE 68504, USA", "postal": "68504", "housenumber": "3505-3533"}, "bbox": [-96.6549733802915, 40.8466269697085, -96.65227541970849, 40.8493249302915]}, {"geometry": {"type": "Point", "coordinates": [-96.6539001, 40.7581609]}, "type": "Feature", "properties": {"city": "Lincoln", "country": "US", "case_no": "B5-065960", "county": "Lancaster County", "state": "NE", "street": "S 48th St", "address": "5551 S 48th St, Lincoln, NE 68516, USA", "postal": "68516", "housenumber": "5551"}, "bbox": {"northeast": [40.7595100302915, -96.6525418697085], "southwest": [40.7568120697085, -96.6552398302915]}}, {"geometry": {"type": "Point", "coordinates": [-96.69671235892679, 40.80259276321988]}, "type": "Feature", "properties": {"city": "Lincoln", "neighborhood": "Near South", "country": "US", "case_no": "B4-103593", "county": "Lancaster County", "state": "NE", "street": "D St", "address": "D Street & South 18th Street, Lincoln, NE 68502, USA", "postal": "68502"}, "bbox": {"northeast": [40.80384798029149, -96.69401801970848], "southwest": [40.80115001970849, -96.6967159802915]}}, {"geometry": {"type": "Point", "coordinates": [-96.653858, 40.757441]}, "type": "Feature", "properties": {"city": "Lincoln", "country": "US", "address": "S 48th St & Briarpark Dr, Lincoln, NE 68516, USA", "case_no": "B6-075066", "county": "Lancaster County", "state": "NE", "street": "S 48th St", "status_code": 200, "postal": "68516"}, "bbox": [-96.65520698029151, 40.7560920197085, -96.6525090197085, 40.7587899802915]}, {"geometry": {"type": "Point", "coordinates": [-96.60607676327272, 40.75518643884925]}, "type": "Feature", "properties": {"city": "Lincoln", "country": "US", "case_no": "B5-041681", "county": "Lancaster County", "state": "NE", "street": "S 84th St", "address": "South 84th Street & Old Cheney Road, Lincoln, NE 68526, USA", "postal": "68526"}, "bbox": {"northeast": [40.75651808029149, -96.6046524197085], "southwest": [40.75382011970849, -96.6073503802915]}}, {"geometry": {"type": "Point", "coordinates": [-96.685201, 40.815739]}, "type": "Feature", "properties": {"city": "Lincoln", "neighborhood": "Hawley", "status_code": 200, "country": "US", "case_no": "B2-071448", "county": "Lancaster County", "state": "NE", "street": "N 25th St", "address": "255 N 25th St, Lincoln, NE 68503, USA", "postal": "68503", "housenumber": "255"}, "bbox": [-96.6867959802915, 40.81421691970849, -96.6840980197085, 40.81691488029149]}, {"geometry": {"type": "Point", "coordinates": [-96.7071908558677, 40.813242700392415]}, "type": "Feature", "properties": {"city": "Lincoln", "neighborhood": "Downtown", "country": "US", "address": "117 S 10th St, Lincoln, NE 68508, USA", "case_no": "NDOR209037630", "county": "Lancaster County", "state": "NE", "street": "S 10th St", "status_code": 200, "postal": "68508", "housenumber": "117"}, "bbox": [-96.70857978029149, 40.8118262197085, -96.70588181970848, 40.8145241802915]}, {"geometry": {"type": "Point", "coordinates": [-96.6441146, 40.8362371]}, "type": "Feature", "properties": {"city": "Lincoln", "neighborhood": "University Place", "status_code": 200, "country": "US", "case_no": "NDOR210052949", "county": "Lancaster County", "state": "NE", "street": "N 56th St", "address": "2346-2398 N 56th St, Lincoln, NE 68504, USA", "postal": "68504", "housenumber": "2346-2398"}, "bbox": [-96.6454792302915, 40.8346784697085, -96.6427812697085, 40.8373764302915]}, {"geometry": {"type": "Point", "coordinates": [-96.711481, 40.81142]}, "type": "Feature", "properties": {"city": "Lincoln", "neighborhood": "South Salt Creek", "country": "US", "case_no": "B4-113596", "county": "Lancaster County", "state": "NE", "street": "M St", "address": "M Street & South 7th Street, Lincoln, NE 68508, USA", "postal": "68508"}, "bbox": {"northeast": [40.81276898029149, -96.7101080197085], "southwest": [40.8100710197085, -96.7128059802915]}}, {"geometry": {"type": "Point", "coordinates": [-96.653773, 40.809796]}, "type": "Feature", "properties": {"city": "Lincoln", "neighborhood": "Witherbee", "country": "US", "case_no": "B4-040552", "county": "Lancaster County", "state": "NE", "street": "S 48th St", "address": "South 48th Street & L Street, Lincoln, NE 68510, USA", "postal": "68510"}, "bbox": {"northeast": [40.81117998029151, -96.6523570197085], "southwest": [40.80848201970851, -96.65505498029151]}}, {"geometry": {"type": "Point", "coordinates": [-96.69843278508691, 40.82047085390447]}, "type": "Feature", "properties": {"city": "Lincoln", "country": "US", "address": "733 N 16th St, Lincoln, NE 68508, USA", "case_no": "NDOR210048119", "county": "Lancaster County", "state": "NE", "street": "N 16th St", "status_code": 200, "postal": "68508", "housenumber": "733"}, "bbox": [-96.69989198029151, 40.8192140197085, -96.6971940197085, 40.8219119802915]}, {"geometry": {"type": "Point", "coordinates": [-96.738015, 40.872008]}, "type": "Feature", "properties": {"city": "Lincoln", "neighborhood": "Highlands", "country": "US", "case_no": "B3-082069", "county": "Lancaster County", "state": "NE", "street": "NW 12th St", "address": "Northwest 12th Street & West Fletcher Avenue, Lincoln, NE 68521, USA", "postal": "68521"}, "bbox": {"northeast": [40.87343198029149, -96.73663461970848], "southwest": [40.87073401970849, -96.73933258029149]}}, {"geometry": {"type": "Point", "coordinates": [-96.6851868, 40.8135]}, "type": "Feature", "properties": {"city": "Lincoln", "neighborhood": "Woods Park", "country": "US", "address": "E O St & S 25th St, Lincoln, NE 68510, USA", "case_no": "B6-055850", "county": "Lancaster County", "state": "NE", "street": "E O St", "status_code": 200, "postal": "68510"}, "bbox": [-96.6865357802915, 40.81215101970849, -96.68383781970849, 40.81484898029149]}, {"geometry": {"type": "Point", "coordinates": [-96.605858, 40.8065862]}, "type": "Feature", "properties": {"city": "Lincoln", "status_code": 200, "country": "US", "case_no": "NDOR209052238", "county": "Lancaster County", "state": "NE", "street": "Sandalwood Dr", "address": "8401 Sandalwood Dr, Lincoln, NE 68520, USA", "postal": "68520", "housenumber": "8401"}, "bbox": [-96.60708118029149, 40.8052524197085, -96.60438321970848, 40.8079503802915]}, {"geometry": {"type": "Point", "coordinates": [-96.6633023, 40.758402]}, "type": "Feature", "properties": {"city": "Lincoln", "country": "US", "case_no": "B5-046273", "county": "Lancaster County", "state": "NE", "street": "S 40th St", "address": "South 40th Street & Wildbriar Lane, Lincoln, NE 68516, USA", "postal": "68516"}, "bbox": {"northeast": [40.75975098029149, -96.6619533197085], "southwest": [40.75705301970849, -96.66465128029151]}}, {"geometry": {"type": "Point", "coordinates": [-96.67285799999999, 40.826204]}, "type": "Feature", "properties": {"city": "Lincoln", "neighborhood": "Clinton", "country": "US", "case_no": "B6-004330", "county": "Lancaster County", "state": "NE", "street": "N 33rd St", "address": "N 33rd St & Dudley St, Lincoln, NE 68503, USA", "postal": "68503"}, "bbox": {"northeast": [40.82755298029149, -96.6715090197085], "southwest": [40.82485501970849, -96.6742069802915]}}, {"geometry": {"type": "Point", "coordinates": [-96.678151, 40.817103]}, "type": "Feature", "properties": {"city": "Lincoln", "neighborhood": "Hartley", "country": "US", "case_no": "B4-075403", "county": "Lancaster County", "state": "NE", "street": "R St", "address": "R Street & North 30th Street, Lincoln, NE 68503, USA", "postal": "68503"}, "bbox": {"northeast": [40.81845498029149, -96.67679801970849], "southwest": [40.81575701970849, -96.67949598029149]}}, {"geometry": {"type": "Point", "coordinates": [-96.69843469326068, 40.799099912254704]}, "type": "Feature", "properties": {"city": "Lincoln", "neighborhood": "Near South", "country": "US", "address": "1525-1599 A St, Lincoln, NE 68502, USA", "case_no": "NDOR210041951", "county": "Lancaster County", "state": "NE", "street": "A St", "status_code": 200, "postal": "68502", "housenumber": "1525-1599"}, "bbox": [-96.70032488029149, 40.7978289697085, -96.69762691970848, 40.8005269302915]}, {"geometry": {"type": "Point", "coordinates": [-96.691631, 40.787813]}, "type": "Feature", "properties": {"city": "Lincoln", "neighborhood": "Country Club", "status_code": 200, "country": "US", "case_no": "NDOR210039800", "county": "Lancaster County", "state": "NE", "street": "Lake St", "address": "2009 Lake St, Lincoln, NE 68502, USA", "postal": "68502", "housenumber": "2009"}, "bbox": [-96.69297998029151, 40.7864640197085, -96.69028201970849, 40.7891619802915]}, {"geometry": {"type": "Point", "coordinates": [-96.70559348884701, 40.80590157200916]}, "type": "Feature", "properties": {"city": "Lincoln", "neighborhood": "Everett", "status_code": 200, "country": "US", "case_no": "B7-019486", "county": "Lancaster County", "state": "NE", "street": "S 11th St", "address": "S 11th St & G St, Lincoln, NE 68508, USA", "postal": "68508"}, "bbox": [-96.7069149802915, 40.8045060197085, -96.70421701970848, 40.8072039802915]}, {"geometry": {"type": "Point", "coordinates": [-96.6345839, 40.8298223]}, "type": "Feature", "properties": {"city": "Lincoln", "neighborhood": "University Place", "status_code": 200, "country": "US", "case_no": "NDOR210029622", "county": "Lancaster County", "state": "NE", "street": "Aylesworth Ave", "address": "6298 Aylesworth Ave, Lincoln, NE 68505, USA", "postal": "68505", "housenumber": "6298"}, "bbox": [-96.6365164802915, 40.82846101970851, -96.63381851970848, 40.83115898029151]}, {"geometry": {"type": "Point", "coordinates": [-96.69815559999999, 40.816871]},