{"type": "FeatureCollection", "features": [{"geometry": {"type": "Point", "coordinates": [-96.60860699999999, 40.835289]}, "type": "Feature", "properties": {"status": "OK", "city": "Lincoln", "confidence": 9, "ok": true, "encoding": "utf-8", "geometry": {"type": "Point", "coordinates": [-96.60860699999999, 40.835289]}, "country": "US", "provider": "google", "case_no": "B3-040261", "bbox": {"northeast": [40.83663798029149, -96.6072580197085], "southwest": [40.8339400197085, -96.6099559802915]}, "county": "Lancaster County", "state": "NE", "street": "Leighton Ave", "location": "LEIGHTON & 83, Lincoln, NE", "address": "Leighton Avenue & North 83rd Street, Lincoln, NE 68507, USA", "lat": 40.835289, "lng": -96.60860699999999, "postal": "68507", "quality": "intersection", "method": "geocode", "accuracy": "APPROXIMATE"}, "bbox": {"northeast": [40.83663798029149, -96.6072580197085], "southwest": [40.8339400197085, -96.6099559802915]}}, {"geometry": {"type": "Point", "coordinates": [-96.66494589999999, 40.7916316]}, "type": "Feature", "properties": {"neighborhood": "40th&A", "encoding": "utf-8", "county": "Lancaster County", "street": "South St", "lng": -96.66494589999999, "quality": "intersection", "city": "Lincoln", "confidence": 9, "state": "NE", "location": "NORMAL & SOUTH, Lincoln, NE", "provider": "google", "method": "geocode", "accuracy": "APPROXIMATE", "status": "OK", "case_no": "B4-089529", "bbox": {"northeast": [40.79298058029149, -96.6635969197085], "southwest": [40.79028261970849, -96.6662948802915]}, "address": "South Street & Normal Boulevard, Lincoln, NE 68506, USA", "lat": 40.7916316, "postal": "68506", "ok": true, "geometry": {"type": "Point", "coordinates": [-96.66494589999999, 40.7916316]}, "country": "US"}, "bbox": {"northeast": [40.79298058029149, -96.6635969197085], "southwest": [40.79028261970849, -96.6662948802915]}}, {"geometry": {"type": "Point", "coordinates": [-96.67608729999999, 40.8207447]}, "type": "Feature", "properties": {"neighborhood": "Hartley", "encoding": "utf-8", "county": "Lancaster County", "street": "Vine St", "lng": -96.67608729999999, "quality": "intersection", "city": "Lincoln", "confidence": 9, "state": "NE", "location": "31st & Vine St, Lincoln, NE", "provider": "google", "method": "geocode", "accuracy": "APPROXIMATE", "status": "OK", "case_no": "B3-039635", "bbox": {"northeast": [40.8220936802915, -96.6747383197085], "southwest": [40.8193957197085, -96.6774362802915]}, "address": "Vine Street & North 31st Street, Lincoln, NE 68503, USA", "lat": 40.8207447, "postal": "68503", "ok": true, "geometry": {"type": "Point", "coordinates": [-96.67608729999999, 40.8207447]}, "country": "US"}, "bbox": {"northeast": [40.8220936802915, -96.6747383197085], "southwest": [40.8193957197085, -96.6774362802915]}}, {"geometry": {"type": "Point", "coordinates": [-96.698181, 40.815831]}, "type": "Feature", "properties": {"neighborhood": "Downtown", "encoding": "utf-8", "county": "Lancaster County", "street": "N 16th St", "lng": -96.698181, "quality": "intersection", "city": "Lincoln", "confidence": 9, "state": "NE", "location": "16th & Q, Lincoln, NE", "provider": "google", "method": "geocode", "accuracy": "APPROXIMATE", "status": "OK", "case_no": "B4-080902", "bbox": {"northeast": [40.8171799802915, -96.69683201970851], "southwest": [40.8144820197085, -96.69952998029152]}, "address": "University of Nebraska-Lincoln, North 16th Street & Q Street, Lincoln, NE 68508, USA", "lat": 40.815831, "postal": "68508", "ok": true, "geometry": {"type": "Point", "coordinates": [-96.698181, 40.815831]}, "country": "US"}, "bbox": {"northeast": [40.8171799802915, -96.69683201970851], "southwest": [40.8144820197085, -96.69952998029152]}}, {"geometry": {"type": "Point", "coordinates": [-96.70698499999999, 40.81586]}, "type": "Feature", "properties": {"neighborhood": "Downtown", "encoding": "utf-8", "county": "Lancaster County", "street": "N 10th St", "lng": -96.70698499999999, "quality": "intersection", "city": "Lincoln", "confidence": 9, "state": "NE", "location": "10th & Q, Lincoln, NE", "provider": "google", "method": "geocode", "accuracy": "APPROXIMATE", "status": "OK", "case_no": "B4-054707", "bbox": {"northeast": [40.8172089802915, -96.70563601970848], "southwest": [40.8145110197085, -96.7083339802915]}, "address": "North 10th Street & Q Street, Lincoln, NE 68508, USA", "lat": 40.81586, "postal": "68508", "ok": true, "geometry": {"type": "Point", "coordinates": [-96.70698499999999, 40.81586]}, "country": "US"}, "bbox": {"northeast": [40.8172089802915, -96.70563601970848], "southwest": [40.8145110197085, -96.7083339802915]}}, {"geometry": {"type": "Point", "coordinates": [-96.69385899999999, 40.813584]}, "type": "Feature", "properties": {"neighborhood": "Downtown", "encoding": "utf-8", "county": "Lancaster County", "street": "E O St", "lng": -96.69385899999999, "quality": "intersection", "city": "Lincoln", "confidence": 9, "state": "NE", "location": "O ST & ANTELOPE VALLEY PARKWAY, Lincoln, NE", "provider": "google", "method": "geocode", "accuracy": "APPROXIMATE", "status": "OK", "case_no": "B4-067796", "bbox": {"northeast": [40.81493298029149, -96.6925100197085], "southwest": [40.8122350197085, -96.6952079802915]}, "address": "East O Street & South Antelope Valley Parkway, Lincoln, NE 68508, USA", "lat": 40.813584, "postal": "68508", "ok": true, "geometry": {"type": "Point", "coordinates": [-96.69385899999999, 40.813584]}, "country": "US"}, "bbox": {"northeast": [40.81493298029149, -96.6925100197085], "southwest": [40.8122350197085, -96.6952079802915]}}, {"geometry": {"type": "Point", "coordinates": [-96.67285, 40.798941]}, "type": "Feature", "properties": {"neighborhood": "Woods Park", "encoding": "utf-8", "county": "Lancaster County", "street": "A St", "lng": -96.67285, "quality": "intersection", "city": "Lincoln", "confidence": 9, "state": "NE", "location": "33rd & A, Lincoln, NE", "provider": "google", "method": "geocode", "accuracy": "APPROXIMATE", "status": "OK", "case_no": "B3-042103", "bbox": {"northeast": [40.8002899802915, -96.6715010197085], "southwest": [40.7975920197085, -96.67419898029151]}, "address": "A Street & South 33rd Street, Lincoln, NE 68510, USA", "lat": 40.798941, "postal": "68510", "ok": true, "geometry": {"type": "Point", "coordinates": [-96.67285, 40.798941]}, "country": "US"}, "bbox": {"northeast": [40.8002899802915, -96.6715010197085], "southwest": [40.7975920197085, -96.67419898029151]}}, {"geometry": {"type": "Point", "coordinates": [-96.6823247, 40.8243671]}, "type": "Feature", "properties": {"neighborhood": "Clinton", "encoding": "utf-8", "county": "Lancaster County", "street": "N 27th St", "lng": -96.6823247, "quality": "intersection", "city": "Lincoln", "confidence": 9, "state": "NE", "location": "27 & Y STREET, Lincoln, NE", "provider": "google", "method": "geocode", "accuracy": "APPROXIMATE", "status": "OK", "case_no": "B3-049103", "bbox": {"northeast": [40.82571608029151, -96.68097571970848], "southwest": [40.82301811970851, -96.68367368029149]}, "address": "North 27th Street & Y Street, Lincoln, NE 68503, USA", "lat": 40.8243671, "postal": "68503", "ok": true, "geometry": {"type": "Point", "coordinates": [-96.6823247, 40.8243671]}, "country": "US"}, "bbox": {"northeast": [40.82571608029151, -96.68097571970848], "southwest": [40.82301811970851, -96.68367368029149]}}, {"geometry": {"type": "Point", "coordinates": [-96.7445884, 40.8137952]}, "type": "Feature", "properties": {"status": "OK", "city": "Lincoln", "confidence": 9, "ok": true, "encoding": "utf-8", "geometry": {"type": "Point", "coordinates": [-96.7445884, 40.8137952]}, "country": "US", "provider": "google", "case_no": "B4-051524", "bbox": {"northeast": [40.8151441802915, -96.7432394197085], "southwest": [40.81244621970851, -96.74593738029151]}, "county": "Lancaster County", "state": "NE", "street": "W O St", "location": "O ST & 16, Lincoln, NE", "address": "West O Street & Northwest 16th Street, Lincoln, NE 68528, USA", "lat": 40.8137952, "lng": -96.7445884, "postal": "68528", "quality": "intersection", "method": "geocode", "accuracy": "APPROXIMATE"}, "bbox": {"northeast": [40.8151441802915, -96.7432394197085], "southwest": [40.81244621970851, -96.74593738029151]}}, {"geometry": {"type": "Point", "coordinates": [-96.670203, 40.820786]}, "type": "Feature", "properties": {"neighborhood": "Hartley", "encoding": "utf-8", "county": "Lancaster County", "street": "Vine St", "lng": -96.670203, "quality": "intersection", "city": "Lincoln", "confidence": 9, "state": "NE", "location": "35th & vine, Lincoln, NE", "provider": "google", "method": "geocode", "accuracy": "APPROXIMATE", "status": "OK", "case_no": "B3-077318", "bbox": {"northeast": [40.82213498029149, -96.6688540197085], "southwest": [40.8194370197085, -96.67155198029151]}, "address": "Vine Street & North 35th Street, Lincoln, NE 68503, USA", "lat": 40.820786, "postal": "68503", "ok": true, "geometry": {"type": "Point", "coordinates": [-96.670203, 40.820786]}, "country": "US"}, "bbox": {"northeast": [40.82213498029149, -96.6688540197085], "southwest": [40.8194370197085, -96.67155198029151]}}, {"geometry": {"type": "Point", "coordinates": [-96.68239, 40.817094]}, "type": "Feature", "properties": {"neighborhood": "Hawley", "encoding": "utf-8", "county": "Lancaster County", "street": "N 27th St", "lng": -96.68239, "quality": "intersection", "city": "Lincoln", "confidence": 9, "state": "NE", "location": "27 & R St., Lincoln, NE", "provider": "google", "method": "geocode", "accuracy": "APPROXIMATE", "status": "OK", "case_no": "B4-083787", "bbox": {"northeast": [40.81844298029149, -96.6810410197085], "southwest": [40.8157450197085, -96.68373898029151]}, "address": "North 27th Street & R Street, Lincoln, NE 68503, USA", "lat": 40.817094, "postal": "68503", "ok": true, "geometry": {"type": "Point", "coordinates": [-96.68239, 40.817094]}, "country": "US"}, "bbox": {"northeast": [40.81844298029149, -96.6810410197085], "southwest": [40.8157450197085, -96.68373898029151]}}, {"geometry": {"type": "Point", "coordinates": [-96.6819409, 40.8569968]}, "type": "Feature", "properties": {"neighborhood": "Sunset Acres", "encoding": "utf-8", "county": "Lancaster County", "street": "Superior St", "lng": -96.6819409, "quality": "intersection", "city": "Lincoln", "confidence": 9, "state": "NE", "location": "Superior & 27th, Lincoln, NE", "provider": "google", "method": "geocode", "accuracy": "APPROXIMATE", "status": "OK", "case_no": "B4-097745", "bbox": {"northeast": [40.85834578029149, -96.68059191970849], "southwest": [40.85564781970849, -96.6832898802915]}, "address": "Superior Street & North 27th Street, Lincoln, NE 68504, USA", "lat": 40.8569968, "postal": "68504", "ok": true, "geometry": {"type": "Point", "coordinates": [-96.6819409, 40.8569968]}, "country": "US"}, "bbox": {"northeast": [40.85834578029149, -96.68059191970849], "southwest": [40.85564781970849, -96.6832898802915]}}, {"geometry": {"type": "Point", "coordinates": [-96.60622359999999, 40.7697472]}, "type": "Feature", "properties": {"neighborhood": "Fox Hollow 2nd Addition", "encoding": "utf-8", "county": "Lancaster County", "street": "S 84th St", "lng": -96.60622359999999, "quality": "intersection", "city": "Lincoln", "confidence": 9, "state": "NE", "location": "S 84TH & PIONEERS BLVD, Lincoln, NE", "provider": "google", "method": "geocode", "accuracy": "APPROXIMATE", "status": "OK", "case_no": "B4-035603", "bbox": {"northeast": [40.77109618029149, -96.6048746197085], "southwest": [40.76839821970849, -96.6075725802915]}, "address": "South 84th Street & Pioneers Boulevard, Lincoln, NE 68506, USA", "lat": 40.7697472, "postal": "68506", "ok": true, "geometry": {"type": "Point", "coordinates": [-96.60622359999999, 40.7697472]}, "country": "US"}, "bbox": {"northeast": [40.77109618029149, -96.6048746197085], "southwest": [40.76839821970849, -96.6075725802915]}}, {"geometry": {"type": "Point", "coordinates": [-96.6967428, 40.79167460000001]}, "type": "Feature", "properties": {"neighborhood": "Irvingdale", "encoding": "utf-8", "county": "Lancaster County", "street": "South St", "lng": -96.6967428, "quality": "intersection", "city": "Lincoln", "confidence": 9, "state": "NE", "location": "SOUTH ST & 17 ST, Lincoln, NE", "provider": "google", "method": "geocode", "accuracy": "APPROXIMATE", "status": "OK", "case_no": "B4-107448", "bbox": {"northeast": [40.79302358029151, -96.69539381970849], "southwest": [40.79032561970851, -96.69809178029149]}, "address": "South Street & South 17th Street, Lincoln, NE 68502, USA", "lat": 40.79167460000001, "postal": "68502", "ok": true, "geometry": {"type": "Point", "coordinates": [-96.6967428, 40.79167460000001]}, "country": "US"}, "bbox": {"northeast": [40.79302358029151, -96.69539381970849], "southwest": [40.79032561970851, -96.69809178029149]}}, {"geometry": {"type": "Point", "coordinates": [-96.67281609999999, 40.8426413]}, "type": "Feature", "properties": {"neighborhood": "Sunset Acres", "encoding": "utf-8", "county": "Lancaster County", "street": "Cornhusker Hwy", "lng": -96.67281609999999, "quality": "intersection", "city": "Lincoln", "confidence": 9, "state": "NE", "location": "N 33RD & CORNHUSKER, Lincoln, NE", "provider": "google", "method": "geocode", "accuracy": "APPROXIMATE", "status": "OK", "case_no": "B3-065731", "bbox": {"northeast": [40.84399028029149, -96.67146711970848], "southwest": [40.84129231970849, -96.6741650802915]}, "address": "Cornhusker Highway & North 33rd Street, Lincoln, NE 68504, USA", "lat": 40.8426413, "postal": "68504", "ok": true, "geometry": {"type": "Point", "coordinates": [-96.67281609999999, 40.8426413]}, "country": "US"}, "bbox": {"northeast": [40.84399028029149, -96.67146711970848], "southwest": [40.84129231970849, -96.6741650802915]}}, {"geometry": {"type": "Point", "coordinates": [-96.61539549999999, 40.8047531]}, "type": "Feature", "properties": {"status": "OK", "city": "Lincoln", "confidence": 9, "ok": true, "accuracy": "APPROXIMATE", "encoding": "utf-8", "geometry": {"type": "Point", "coordinates": [-96.61539549999999, 40.8047531]}, "country": "US", "address": "South Hazelwood Drive & Englewood Drive, Lincoln, NE 68510, USA", "case_no": "B3-063805", "county": "Lancaster County", "state": "NE", "street": "S Hazelwood Dr", "location": "S. HAZELWOOD DR & ENGLEWOOD DR, Lincoln, NE", "provider": "google", "lat": 40.8047531, "lng": -96.61539549999999, "postal": "68510", "quality": "intersection", "method": "geocode", "bbox": {"northeast": [40.8061020802915, -96.6140465197085], "southwest": [40.8034041197085, -96.6167444802915]}}, "bbox": {"northeast": [40.8061020802915, -96.6140465197085], "southwest": [40.8034041197085, -96.6167444802915]}}, {"geometry": {"type": "Point", "coordinates": [-96.6441389, 40.8134906]}, "type": "Feature", "properties": {"neighborhood": "Culler", "encoding": "utf-8", "county": "Lancaster County", "street": "E O St", "lng": -96.6441389, "quality": "intersection", "city": "Lincoln", "confidence": 9, "state": "NE", "location": "56th & East O, Lincoln, NE", "provider": "google", "method": "geocode", "accuracy": "APPROXIMATE", "status": "OK", "case_no": "B4-089583", "bbox": {"northeast": [40.8148395802915, -96.64278991970849], "southwest": [40.81214161970851, -96.64548788029151]}, "address": "East O Street & South 56th Street, Lincoln, NE 68504, USA", "lat": 40.8134906, "postal": "68504", "ok": true, "geometry": {"type": "Point", "coordinates": [-96.6441389, 40.8134906]}, "country": "US"}, "bbox": {"northeast": [40.8148395802915, -96.64278991970849], "southwest": [40.81214161970851, -96.64548788029151]}}, {"geometry": {"type": "Point", "coordinates": [-96.67949720000001, 40.8424985]}, "type": "Feature", "properties": {"status": "OK", "city": "Lincoln", "confidence": 9, "ok": true, "location": "STATE FAIR PARK DR & CORNHUSKER HWY, Lincoln, NE", "encoding": "utf-8", "geometry": {"type": "Point", "coordinates": [-96.67949720000001, 40.8424985]}, "country": "US", "provider": "google", "case_no": "B4-085278", "county": "Lancaster County", "state": "NE", "street": "Cornhusker Hwy", "bbox": {"northeast": [40.84384748029149, -96.67814821970852], "southwest": [40.8411495197085, -96.68084618029152]}, "address": "Cornhusker Highway & State Fair Park Drive, Lincoln, NE 68504, USA", "lat": 40.8424985, "lng": -96.67949720000001, "postal": "68504", "quality": "intersection", "method": "geocode", "accuracy": "APPROXIMATE"}, "bbox": {"northeast": [40.84384748029149, -96.67814821970852], "southwest": [40.8411495197085, -96.68084618029152]}}, {"geometry": {"type": "Point", "coordinates": [-96.64425469999999, 40.7834499]}, "type": "Feature", "properties": {"status": "OK", "city": "Lincoln", "confidence": 9, "ok": true, "location": "56th & Van Dorn, Lincoln, NE", "encoding": "utf-8", "geometry": {"type": "Point", "coordinates": [-96.64425469999999, 40.7834499]}, "country": "US", "provider": "google", "case_no": "B4-055169", "county": "Lancaster County", "state": "NE", "street": "Van Dorn St", "bbox": {"northeast": [40.7847988802915, -96.6429057197085], "southwest": [40.7821009197085, -96.6456036802915]}, "address": "Van Dorn Street & South 56th Street, Lincoln, NE 68506, USA", "lat": 40.7834499, "lng": -96.64425469999999, "postal": "68506", "quality": "intersection", "method": "geocode", "accuracy": "APPROXIMATE"}, "bbox": {"northeast": [40.7847988802915, -96.6429057197085], "southwest": [40.7821009197085, -96.6456036802915]}}, {"geometry": {"type": "Point", "coordinates": [-96.682352, 40.798943]}, "type": "Feature", "properties": {"neighborhood": "Near South", "encoding": "utf-8", "county": "Lancaster County", "street": "A St", "lng": -96.682352, "quality": "intersection", "city": "Lincoln", "confidence": 9, "state": "NE", "location": "A & 27th, Lincoln, NE", "provider": "google", "method": "geocode", "accuracy": "APPROXIMATE", "status": "OK", "case_no": "B5-019431", "bbox": {"northeast": [40.8002919802915, -96.68100301970848], "southwest": [40.7975940197085, -96.68370098029149]}, "address": "A Street & South 27th Street, Lincoln, NE 68502, USA", "lat": 40.798943, "postal": "68502", "ok": true, "geometry": {"type": "Point", "coordinates": [-96.682352, 40.798943]}, "country": "US"}, "bbox": {"northeast": [40.8002919802915, -96.68100301970848], "southwest": [40.7975940197085, -96.68370098029149]}}, {"geometry": {"type": "Point", "coordinates": [-96.6304365, 40.835207]}, "type": "Feature", "properties": {"neighborhood": "Bethany", "encoding": "utf-8", "county": "Lancaster County", "street": "Leighton Ave", "lng": -96.6304365, "quality": "intersection", "city": "Lincoln", "confidence": 9, "state": "NE", "location": "leighton & cotner, Lincoln, NE", "provider": "google", "method": "geocode", "accuracy": "APPROXIMATE", "status": "OK", "case_no": "B3-103352", "bbox": {"northeast": [40.83655598029149, -96.62908751970849], "southwest": [40.83385801970849, -96.63178548029151]}, "address": "Leighton Avenue & North Cotner Boulevard, Lincoln, NE 68507, USA", "lat": 40.835207, "postal": "68507", "ok": true, "geometry": {"type": "Point", "coordinates": [-96.6304365, 40.835207]}, "country": "US"}, "bbox": {"northeast": [40.83655598029149, -96.62908751970849], "southwest": [40.83385801970849, -96.63178548029151]}}, {"geometry": {"type": "Point", "coordinates": [-96.66494589999999, 40.7916316]}, "type": "Feature", "properties": {"neighborhood": "40th&A", "encoding": "utf-8", "county": "Lancaster County", "street": "South St", "lng": -96.66494589999999, "quality": "intersection", "city": "Lincoln", "confidence": 9, "state": "NE", "location": "South Street & Normal Blvd, Lincoln, NE", "provider": "google", "method": "geocode", "accuracy": "APPROXIMATE", "status": "OK", "case_no": "B3-104460", "bbox": {"northeast": [40.79298058029149, -96.6635969197085], "southwest": [40.79028261970849, -96.6662948802915]}, "address": "South Street & Normal Boulevard, Lincoln, NE 68506, USA", "lat": 40.7916316, "postal": "68506", "ok": true, "geometry": {"type": "Point", "coordinates": [-96.66494589999999, 40.7916316]}, "country": "US"}, "bbox": {"northeast": [40.79298058029149, -96.6635969197085], "southwest": [40.79028261970849, -96.6662948802915]}}, {"geometry": {"type": "Point", "coordinates": [-96.6858352, 40.8571903]}, "type": "Feature", "properties": {"neighborhood": "Landon's", "encoding": "utf-8", "county": "Lancaster County", "street": "Superior St", "lng": -96.6858352, "quality": "intersection", "city": "Lincoln", "confidence": 9, "state": "NE", "location": "24th & Superior, Lincoln, NE", "provider": "google", "method": "geocode", "accuracy": "APPROXIMATE", "status": "OK", "case_no": "B5-038870", "bbox": {"northeast": [40.8585392802915, -96.6844862197085], "southwest": [40.8558413197085, -96.68718418029151]}, "address": "Superior Street & North 24th Street, Lincoln, NE 68521, USA", "lat": 40.8571903, "postal": "68521", "ok": true, "geometry": {"type": "Point", "coordinates": [-96.6858352, 40.8571903]}, "country": "US"}, "bbox": {"northeast": [40.8585392802915, -96.6844862197085], "southwest": [40.8558413197085, -96.68718418029151]}}, {"geometry": {"type": "Point", "coordinates": [-96.6824365, 40.8080283]}, "type": "Feature", "properties": {"neighborhood": "Woods Park", "encoding": "utf-8", "county": "Lancaster County", "street": "S 27th St", "lng": -96.6824365, "quality": "intersection", "city": "Lincoln", "confidence": 9, "state": "NE", "location": "27 & J, Lincoln, NE", "provider": "google", "method": "geocode", "accuracy": "APPROXIMATE", "status": "OK", "case_no": "B3-069383", "bbox": {"northeast": [40.80937728029149, -96.68108751970848], "southwest": [40.80667931970849, -96.6837854802915]}, "address": "South 27th Street & J Street, Lincoln, NE 68510, USA", "lat": 40.8080283, "postal": "68510", "ok": true, "geometry": {"type": "Point", "coordinates": [-96.6824365, 40.8080283]}, "country": "US"}, "bbox": {"northeast": [40.80937728029149, -96.68108751970848], "southwest": [40.80667931970849, -96.6837854802915]}}, {"geometry": {"type": "Point", "coordinates": [-96.67044399999999, 40.798941]}, "type": "Feature", "properties": {"neighborhood": "40th&A", "encoding": "utf-8", "county": "Lancaster County", "street": "A St", "lng": -96.67044399999999, "quality": "intersection", "city": "Lincoln", "confidence": 9, "state": "NE", "location": "S 35th & A st, Lincoln, NE", "provider": "google", "method": "geocode", "accuracy": "APPROXIMATE", "status": "OK", "case_no": "B4-061463", "bbox": {"northeast": [40.8002899802915, -96.6690950197085], "southwest": [40.7975920197085, -96.6717929802915]}, "address": "A Street & South 35th Street, Lincoln, NE 68510, USA", "lat": 40.798941, "postal": "68510", "ok": true, "geometry": {"type": "Point", "coordinates": [-96.67044399999999, 40.798941]}, "country": "US"}, "bbox": {"northeast": [40.8002899802915, -96.6690950197085], "southwest": [40.7975920197085, -96.6717929802915]}}, {"geometry": {"type": "Point", "coordinates": [-96.6925581, 40.8209746]}, "type": "Feature", "properties": {"status": "OK", "city": "Lincoln", "confidence": 9, "ok": true, "location": "vine & antelope valley, Lincoln, NE", "encoding": "utf-8", "geometry": {"type": "Point", "coordinates": [-96.6925581, 40.8209746]}, "country": "US", "provider": "google", "case_no": "B3-096911", "county": "Lancaster County", "state": "NE", "street": "N Antelope Valley Pkwy", "bbox": {"northeast": [40.8223235802915, -96.69120911970849], "southwest": [40.8196256197085, -96.69390708029151]}, "address": "North Antelope Valley Parkway & Vine Street, Lincoln, NE 68503, USA", "lat": 40.8209746, "lng": -96.6925581, "postal": "68503", "quality": "intersection", "method": "geocode", "accuracy": "APPROXIMATE"}, "bbox": {"northeast": [40.8223235802915, -96.69120911970849], "southwest": [40.8196256197085, -96.69390708029151]}}, {"geometry": {"type": "Point", "coordinates": [-96.70847909999999, 40.8136359]}, "type": "Feature", "properties": {"neighborhood": "Downtown", "encoding": "utf-8", "county": "Lancaster County", "street": "E O St", "lng": -96.70847909999999, "quality": "intersection", "city": "Lincoln", "confidence": 9, "state": "NE", "location": "9th & O, Lincoln, NE", "provider": "google", "method": "geocode", "accuracy": "APPROXIMATE", "status": "OK", "case_no": "B4-032910", "bbox": {"northeast": [40.8149848802915, -96.70713011970848], "southwest": [40.81228691970851, -96.7098280802915]}, "address": "East O Street & South 9th Street, Lincoln, NE 68508, USA", "lat": 40.8136359, "postal": "68508", "ok": true, "geometry": {"type": "Point", "coordinates": [-96.70847909999999, 40.8136359]}, "country": "US"}, "bbox": {"northeast": [40.8149848802915, -96.70713011970848], "southwest": [40.81228691970851, -96.7098280802915]}}, {"geometry": {"type": "Point", "coordinates": [-96.68244960000001, 40.802617]}, "type": "Feature", "properties": {"neighborhood": "Woods Park", "encoding": "utf-8", "county": "Lancaster County", "street": "S 27th St", "lng": -96.68244960000001, "quality": "intersection", "city": "Lincoln", "confidence": 9, "state": "NE", "location": "27th & capital parkway, Lincoln, NE", "provider": "google", "method": "geocode", "accuracy": "APPROXIMATE", "status": "OK", "case_no": "B4-081988", "bbox": {"northeast": [40.80396598029149, -96.68110061970852], "southwest": [40.8012680197085, -96.68379858029152]}, "address": "South 27th Street & Capitol Parkway, Lincoln, NE 68510, USA", "lat": 40.802617, "postal": "68510", "ok": true, "geometry": {"type": "Point", "coordinates": [-96.68244960000001, 40.802617]}, "country": "US"}, "bbox": {"northeast": [40.80396598029149, -96.68110061970852], "southwest": [40.8012680197085, -96.68379858029152]}}, {"geometry": {"type": "Point", "coordinates": [-96.656813, 40.769778]}, "type": "Feature", "properties": {"status": "OK", "city": "Lincoln", "confidence": 9, "ok": true, "location": "46th & pioneers, Lincoln, NE", "encoding": "utf-8", "geometry": {"type": "Point", "coordinates": [-96.656813, 40.769778]}, "country": "US", "provider": "google", "case_no": "B5-026900", "county": "Lancaster County", "state": "NE", "street": "Pioneers Blvd", "bbox": {"northeast": [40.7711269802915, -96.65546401970849], "southwest": [40.7684290197085, -96.65816198029151]}, "address": "Pioneers Boulevard & South 46th Street, Lincoln, NE 68516, USA", "lat": 40.769778, "lng": -96.656813, "postal": "68516", "quality": "intersection", "method": "geocode", "accuracy": "APPROXIMATE"}, "bbox": {"northeast": [40.7711269802915, -96.65546401970849], "southwest": [40.7684290197085, -96.65816198029151]}}, {"geometry": {"type": "Point", "coordinates": [-96.70122599999999, 40.802517]}, "type": "Feature", "properties": {"neighborhood": "Near South", "encoding": "utf-8", "county": "Lancaster County", "street": "S 14th St", "lng": -96.70122599999999, "quality": "intersection", "city": "Lincoln", "confidence": 9, "state": "NE", "location": "S. 14th & D St, Lincoln, NE", "provider": "google", "method": "geocode", "accuracy": "APPROXIMATE", "status": "OK", "case_no": "B3-064051", "bbox": {"northeast": [40.8038659802915, -96.69987701970848], "southwest": [40.80116801970851, -96.7025749802915]}, "address": "South 14th Street & D Street, Lincoln, NE 68502, USA", "lat": 40.802517, "postal": "68502", "ok": true, "geometry": {"type": "Point", "coordinates": [-96.70122599999999, 40.802517]}, "country": "US"}, "bbox": {"northeast": [40.8038659802915, -96.69987701970848], "southwest": [40.80116801970851, -96.7025749802915]}}, {"geometry": {"type": "Point", "coordinates": [-96.67404049999999, 40.798941]}, "type": "Feature", "properties": {"neighborhood": "Woods Park", "encoding": "utf-8", "county": "Lancaster County", "street": "A St", "lng": -96.67404049999999, "quality": "intersection", "city": "Lincoln", "confidence": 9, "state": "NE", "location": "A St & Chautaqua, Lincoln, NE", "provider": "google", "method": "geocode", "accuracy": "APPROXIMATE", "status": "OK", "case_no": "B3-079399", "bbox": {"northeast": [40.8002899802915, -96.67269151970848], "southwest": [40.7975920197085, -96.6753894802915]}, "address": "A Street & Chautauqua Avenue, Lincoln, NE 68510, USA", "lat": 40.798941, "postal": "68510", "ok": true, "geometry": {"type": "Point", "coordinates": [-96.67404049999999, 40.798941]}, "country": "US"}, "bbox": {"northeast": [40.8002899802915, -96.67269151970848], "southwest": [40.7975920197085, -96.6753894802915]}}, {"geometry": {"type": "Point", "coordinates": [-96.6820352, 40.8424934]}, "type": "Feature", "properties": {"status": "OK", "city": "Lincoln", "confidence": 9, "ok": true, "location": "Cornhusker Hwy & N 27th, Lincoln, NE", "encoding": "utf-8", "geometry": {"type": "Point", "coordinates": [-96.6820352, 40.8424934]}, "country": "US", "provider": "google", "case_no": "B4-055506", "county": "Lancaster County", "state": "NE", "street": "Cornhusker Hwy", "bbox": {"northeast": [40.84384238029149, -96.6806862197085], "southwest": [40.84114441970849, -96.68338418029151]}, "address": "Cornhusker Highway & North 27th Street, Lincoln, NE 68504, USA", "lat": 40.8424934, "lng": -96.6820352, "postal": "68504", "quality": "intersection", "method": "geocode", "accuracy": "APPROXIMATE"}, "bbox": {"northeast": [40.84384238029149, -96.6806862197085], "southwest": [40.84114441970849, -96.68338418029151]}}, {"geometry": {"type": "Point", "coordinates": [-96.6880511, 40.7395155]}, "type": "Feature", "properties": {"status": "OK", "city": "Lincoln", "confidence": 9, "ok": true, "location": "pine lake & ridge rd, Lincoln, NE", "encoding": "utf-8", "geometry": {"type": "Point", "coordinates": [-96.6880511, 40.7395155]}, "country": "US", "provider": "google", "case_no": "B4-002394", "county": "Lancaster County", "state": "NE", "street": "Pine Lake Rd", "bbox": {"northeast": [40.7408644802915, -96.68670211970849], "southwest": [40.7381665197085, -96.68940008029149]}, "address": "Pine Lake Road & Ridge Road, Lincoln, NE 68512, USA", "lat": 40.7395155, "lng": -96.6880511, "postal": "68512", "quality": "intersection", "method": "geocode", "accuracy": "APPROXIMATE"}, "bbox": {"northeast": [40.7408644802915, -96.68670211970849], "southwest": [40.7381665197085, -96.68940008029149]}}, {"geometry": {"type": "Point", "coordinates": [-96.6820352, 40.8424934]}, "type": "Feature", "properties": {"status": "OK", "city": "Lincoln", "confidence": 9, "ok": true, "location": "N 27TH & CORNHUSKER, Lincoln, NE", "encoding": "utf-8", "geometry": {"type": "Point", "coordinates": [-96.6820352, 40.8424934]}, "country": "US", "provider": "google", "case_no": "B3-060171", "county": "Lancaster County", "state": "NE", "street": "Cornhusker Hwy", "bbox": {"northeast": [40.84384238029149, -96.6806862197085], "southwest": [40.84114441970849, -96.68338418029151]}, "address": "Cornhusker Highway & North 27th Street, Lincoln, NE 68504, USA", "lat": 40.8424934, "lng": -96.6820352, "postal": "68504", "quality": "intersection", "method": "geocode", "accuracy": "APPROXIMATE"}, "bbox": {"northeast": [40.84384238029149, -96.6806862197085], "southwest": [40.84114441970849, -96.68338418029151]}}, {"geometry": {"type": "Point", "coordinates": [-96.6818569, 40.826434]}, "type": "Feature", "properties": {"neighborhood": "Clinton", "encoding": "utf-8", "county": "Lancaster County", "street": "N 27th St", "lng": -96.6818569, "quality": "street_address", "city": "Lincoln", "confidence": 9, "state": "NE", "location": "1300 block of N. 27th Street, Lincoln, NE", "provider": "google", "housenumber": "1300", "method": "geocode", "accuracy": "ROOFTOP", "status": "OK", "case_no": "B3-063528", "bbox": {"northeast": [40.8277829802915, -96.68050791970849], "southwest": [40.8250850197085, -96.6832058802915]}, "address": "1300 North 27th Street, Lincoln, NE 68503, USA", "lat": 40.826434, "postal": "68503", "ok": true, "geometry": {"type": "Point", "coordinates": [-96.6818569, 40.826434]}, "country": "US"}, "bbox": {"northeast": [40.8277829802915, -96.68050791970849], "southwest": [40.8250850197085, -96.6832058802915]}}, {"geometry": {"type": "Point", "coordinates": [-96.676304, 40.813534]}, "type": "Feature", "properties": {"neighborhood": "Woods Park", "encoding": "utf-8", "county": "Lancaster County", "street": "E O St", "lng": -96.676304, "quality": "intersection", "city": "Lincoln", "confidence": 9, "state": "NE", "location": "31st & O, Lincoln, NE", "provider": "google", "method": "geocode", "accuracy": "APPROXIMATE", "status": "OK", "case_no": "B4-077544", "bbox": {"northeast": [40.8148829802915, -96.6749550197085], "southwest": [40.8121850197085, -96.67765298029151]}, "address": "East O Street & North 31st Street, Lincoln, NE 68510, USA", "lat": 40.813534, "postal": "68510", "ok": true, "geometry": {"type": "Point", "coordinates": [-96.676304, 40.813534]}, "country": "US"}, "bbox": {"northeast": [40.8148829802915, -96.6749550197085], "southwest": [40.8121850197085, -96.67765298029151]}}, {"geometry": {"type": "Point", "coordinates": [-96.661613, 40.7519728]}, "type": "Feature", "properties": {"status": "OK", "city": "Lincoln", "confidence": 9, "ok": true, "location": "S 42ND & DUXHALL, Lincoln, NE", "encoding": "utf-8", "geometry": {"type": "Point", "coordinates": [-96.661613, 40.7519728]}, "country": "US", "provider": "google", "case_no": "B4-101309", "county": "Lancaster County", "state": "NE", "street": "Duxhall Dr", "bbox": {"northeast": [40.75332178029149, -96.6602640197085], "southwest": [40.7506238197085, -96.66296198029151]}, "address": "Duxhall Drive & South 42nd Street, Lincoln, NE 68516, USA", "lat": 40.7519728, "lng": -96.661613, "postal": "68516", "quality": "intersection", "method": "geocode", "accuracy": "APPROXIMATE"}, "bbox": {"northeast": [40.75332178029149, -96.6602640197085], "southwest": [40.7506238197085, -96.66296198029151]}}, {"geometry": {"type": "Point", "coordinates": [-96.653666, 40.798932]}, "type": "Feature", "properties": {"status": "OK", "city": "Lincoln", "confidence": 9, "ok": true, "location": "48th & A, Lincoln, NE", "encoding": "utf-8", "geometry": {"type": "Point", "coordinates": [-96.653666, 40.798932]}, "country": "US", "provider": "google", "case_no": "B4-072918", "county": "Lancaster County", "state": "NE", "street": "A St", "bbox": {"northeast": [40.8002809802915, -96.65231701970849], "southwest": [40.7975830197085, -96.6550149802915]}, "address": "A Street & South 48th Street, Lincoln, NE 68510, USA", "lat": 40.798932, "lng": -96.653666, "postal": "68510", "quality": "intersection", "method": "geocode", "accuracy": "APPROXIMATE"}, "bbox": {"northeast": [40.8002809802915, -96.65231701970849], "southwest": [40.7975830197085, -96.6550149802915]}}, {"geometry": {"type": "Point", "coordinates": [-96.60592539999999, 40.8207095]}, "type": "Feature", "properties": {"neighborhood": "Meadowlane", "encoding": "utf-8", "county": "Lancaster County", "street": "N 84th St", "lng": -96.60592539999999, "quality": "intersection", "city": "Lincoln", "confidence": 9, "state": "NE", "location": "Vine St. & N 84 St., Lincoln, NE", "provider": "google", "method": "geocode", "accuracy": "APPROXIMATE", "status": "OK", "case_no": "B4-063856", "bbox": {"northeast": [40.8220584802915, -96.6045764197085], "southwest": [40.8193605197085, -96.6072743802915]}, "address": "North 84th Street & Vine Street, Lincoln, NE 68505, USA", "lat": 40.8207095, "postal": "68505", "ok": true, "geometry": {"type": "Point", "coordinates": [-96.60592539999999, 40.8207095]}, "country": "US"}, "bbox": {"northeast": [40.8220584802915, -96.6045764197085], "southwest": [40.8193605197085, -96.6072743802915]}}, {"geometry": {"type": "Point", "coordinates": [-96.682238, 40.820793]}, "type": "Feature", "properties": {"neighborhood": "Hawley", "encoding": "utf-8", "county": "Lancaster County", "street": "N 27th St", "lng": -96.682238, "quality": "intersection", "city": "Lincoln", "confidence": 9, "state": "NE", "location": "N.27th & Vine, Lincoln, NE", "provider": "google", "method": "geocode", "accuracy": "APPROXIMATE", "status": "OK", "case_no": "B4-101521", "bbox": {"northeast": [40.82214198029151, -96.68088901970849], "southwest": [40.81944401970851, -96.68358698029151]}, "address": "North 27th Street & Vine Street, Lincoln, NE 68503, USA", "lat": 40.820793, "postal": "68503", "ok": true, "geometry": {"type": "Point", "coordinates": [-96.682238, 40.820793]}, "country": "US"}, "bbox": {"northeast": [40.82214198029151, -96.68088901970849], "southwest": [40.81944401970851, -96.68358698029151]}}, {"geometry": {"type": "Point", "coordinates": [-96.68245499999999, 40.80142]}, "type": "Feature", "properties": {"neighborhood": "Near South", "encoding": "utf-8", "county": "Lancaster County", "street": "S 27th St", "lng": -96.68245499999999, "quality": "intersection", "city": "Lincoln", "confidence": 9, "state": "NE", "location": "S 27 & C St, Lincoln, NE", "provider": "google", "method": "geocode", "accuracy": "APPROXIMATE", "status": "OK", "case_no": "B4-018717", "bbox": {"northeast": [40.8027689802915, -96.68110601970848], "southwest": [40.8000710197085, -96.6838039802915]}, "address": "South 27th Street & C Street, Lincoln, NE 68502, USA", "lat": 40.80142, "postal": "68502", "ok": true, "geometry": {"type": "Point", "coordinates": [-96.68245499999999, 40.80142]}, "country": "US"}, "bbox": {"northeast": [40.8027689802915, -96.68110601970848], "southwest": [40.8000710197085, -96.6838039802915]}}, {"geometry": {"type": "Point", "coordinates": [-96.69531500000001, 40.810269]}, "type": "Feature", "properties": {"neighborhood": "Downtown", "encoding": "utf-8", "county": "Lancaster County", "street": "L St", "lng": -96.69531500000001, "quality": "intersection", "city": "Lincoln", "confidence": 9, "state": "NE", "location": "S 18th St & L Street, Lincoln, NE", "provider": "google", "method": "geocode", "accuracy": "APPROXIMATE", "status": "OK", "case_no": "B4-032928", "bbox": {"northeast": [40.8116179802915, -96.69396601970851], "southwest": [40.8089200197085, -96.69666398029152]}, "address": "L Street & South 18th Street, Lincoln, NE 68508, USA", "lat": 40.810269, "postal": "68508", "ok": true, "geometry": {"type": "Point", "coordinates": [-96.69531500000001, 40.810269]}, "country": "US"}, "bbox": {"northeast": [40.8116179802915, -96.69396601970851], "southwest": [40.8089200197085, -96.69666398029152]}}, {"geometry": {"type": "Point", "coordinates": [-96.6965231, 40.8233827]}, "type": "Feature", "properties": {"status": "OK", "city": "Lincoln", "confidence": 9, "ok": true, "location": "17th & X, Lincoln, NE", "encoding": "utf-8", "geometry": {"type": "Point", "coordinates": [-96.6965231, 40.8233827]}, "country": "US", "provider": "google", "case_no": "B5-023397", "county": "Lancaster County", "state": "NE", "street": "N 17th St", "bbox": {"northeast": [40.8247316802915, -96.69517411970848], "southwest": [40.8220337197085, -96.6978720802915]}, "address": "University of Nebraska-Lincoln, University of Nebraska - Lincoln: City Campus, North 17th Street & X Street, Lincoln, NE 68508, USA", "lat": 40.8233827, "lng": -96.6965231, "postal": "68508", "quality": "intersection", "method": "geocode", "accuracy": "APPROXIMATE"}, "bbox": {"northeast": [40.8247316802915, -96.69517411970848], "southwest": [40.8220337197085, -96.6978720802915]}}, {"geometry": {"type": "Point", "coordinates": [-96.69681399999999, 40.802504]}, "type": "Feature", "properties": {"neighborhood": "Near South", "encoding": "utf-8", "county": "Lancaster County", "street": "S 17th St", "lng": -96.69681399999999, "quality": "intersection", "city": "Lincoln", "confidence": 9, "state": "NE", "location": "D st & 17th, Lincoln, NE", "provider": "google", "method": "geocode", "accuracy": "APPROXIMATE", "status": "OK", "case_no": "B4-088430", "bbox": {"northeast": [40.8038529802915, -96.69546501970848], "southwest": [40.8011550197085, -96.6981629802915]}, "address": "South 17th Street & D Street, Lincoln, NE 68502, USA", "lat": 40.802504, "postal": "68502", "ok": true, "geometry": {"type": "Point", "coordinates": [-96.69681399999999, 40.802504]}, "country": "US"}, "bbox": {"northeast": [40.8038529802915, -96.69546501970848], "southwest": [40.8011550197085, -96.6981629802915]}}, {"geometry": {"type": "Point", "coordinates": [-96.682238, 40.820793]}, "type": "Feature", "properties": {"neighborhood": "Hawley", "encoding": "utf-8", "county": "Lancaster County", "street": "N 27th St", "lng": -96.682238, "quality": "intersection", "city": "Lincoln", "confidence": 9, "state": "NE", "location": "27th & Vine, Lincoln, NE", "provider": "google", "method": "geocode", "accuracy": "APPROXIMATE", "status": "OK", "case_no": "B4-089553", "bbox": {"northeast": [40.82214198029151, -96.68088901970849], "southwest": [40.81944401970851, -96.68358698029151]}, "address": "North 27th Street & Vine Street, Lincoln, NE 68503, USA", "lat": 40.820793, "postal": "68503", "ok": true, "geometry": {"type": "Point", "coordinates": [-96.682238, 40.820793]}, "country": "US"}, "bbox": {"northeast": [40.82214198029151, -96.68088901970849], "southwest": [40.81944401970851, -96.68358698029151]}}, {"geometry": {"type": "Point", "coordinates": [-96.6836573, 40.8388911]}, "type": "Feature", "properties": {"encoding": "utf-8", "county": "Lancaster County", "street": "Theresa St", "lng": -96.6836573, "quality": "street_address", "city": "Lincoln", "confidence": 9, "state": "NE", "location": "2545 Theresa, Lincoln, NE", "provider": "google", "housenumber": "2545", "method": "geocode", "accuracy": "ROOFTOP", "status": "OK", "case_no": "B4-057275", "bbox": {"northeast": [40.8402400802915, -96.68230831970848], "southwest": [40.8375421197085, -96.6850062802915]}, "address": "2545 Theresa Street, Lincoln, NE 68521, USA", "lat": 40.8388911, "postal": "68521", "ok": true, "geometry": {"type": "Point", "coordinates": [-96.6836573, 40.8388911]}, "country": "US"}, "bbox": {"northeast": [40.8402400802915, -96.68230831970848], "southwest": [40.8375421197085, -96.6850062802915]}}, {"geometry": {"type": "Point", "coordinates": [-96.67285, 40.798941]}, "type": "Feature", "properties": {"neighborhood": "Woods Park", "encoding": "utf-8", "county": "Lancaster County", "street": "A St", "lng": -96.67285, "quality": "intersection", "city": "Lincoln", "confidence": 9, "state": "NE", "location": "33rd & A, Lincoln, NE", "provider": "google", "method": "geocode", "accuracy": "APPROXIMATE", "status": "OK", "case_no": "B3-103944", "bbox": {"northeast": [40.8002899802915, -96.6715010197085], "southwest": [40.7975920197085, -96.67419898029151]}, "address": "A Street & South 33rd Street, Lincoln, NE 68510, USA", "lat": 40.798941, "postal": "68510", "ok": true, "geometry": {"type": "Point", "coordinates": [-96.67285, 40.798941]}, "country": "US"}, "bbox": {"northeast": [40.8002899802915, -96.6715010197085], "southwest": [40.7975920197085, -96.67419898029151]}}, {"geometry": {"type": "Point", "coordinates": [-96.6632927, 40.813535]}, "type": "Feature", "properties": {"status": "OK", "city": "Lincoln", "confidence": 9, "ok": true, "accuracy": "APPROXIMATE", "encoding": "utf-8", "geometry": {"type": "Point", "coordinates": [-96.6632927, 40.813535]}, "country": "US", "address": "East O Street & South 40th Street, Lincoln, NE 68503, USA", "case_no": "B4-054751", "county": "Lancaster County", "state": "NE", "street": "E O St", "location": "S 40th & East O st, Lincoln, NE", "provider": "google", "lat": 40.813535, "lng": -96.6632927, "postal": "68503", "quality": "intersection", "method": "geocode", "bbox": {"northeast": [40.8148839802915, -96.6619437197085], "southwest": [40.81218601970851, -96.66464168029151]}}, "bbox": {"northeast": [40.8148839802915, -96.6619437197085], "southwest": [40.81218601970851, -96.66464168029151]}}, {"geometry": {"type": "Point", "coordinates": [-96.69531500000001, 40.810269]}, "type": "Feature", "properties": {"neighborhood": "Downtown", "encoding": "utf-8", "county": "Lancaster County", "street": "L St", "lng": -96.69531500000001, "quality": "intersection", "city": "Lincoln", "confidence": 9, "state": "NE", "location": "18th & L, Lincoln, NE", "provider": "google", "method": "geocode", "accuracy": "APPROXIMATE", "status": "OK", "case_no": "B5-038645", "bbox": {"northeast": [40.8116179802915, -96.69396601970851], "southwest": [40.8089200197085, -96.69666398029152]}, "address": "L Street & South 18th Street, Lincoln, NE 68508, USA", "lat": 40.810269, "postal": "68508", "ok": true, "geometry": {"type": "Point", "coordinates": [-96.69531500000001, 40.810269]}, "country": "US"}, "bbox": {"northeast": [40.8116179802915, -96.69396601970851], "southwest": [40.8089200197085, -96.69666398029152]}}, {"geometry": {"type": "Point", "coordinates": [-96.627736, 40.836247]}, "type": "Feature", "properties": {"neighborhood": "Bethany", "encoding": "utf-8", "county": "Lancaster County", "street": "Walker Ave", "lng": -96.627736, "quality": "intersection", "city": "Lincoln", "confidence": 9, "state": "NE", "location": "68th & walker, Lincoln, NE", "provider": "google", "method": "geocode", "accuracy": "APPROXIMATE", "status": "OK", "case_no": "B4-077259", "bbox": {"northeast": [40.8375959802915, -96.62638701970849], "southwest": [40.8348980197085, -96.62908498029151]}, "address": "Walker Avenue & North 68th Street, Lincoln, NE 68507, USA", "lat": 40.836247, "postal": "68507", "ok": true, "geometry": {"type": "Point", "coordinates": [-96.627736, 40.836247]}, "country": "US"}, "bbox": {"northeast": [40.8375959802915, -96.62638701970849], "southwest": [40.8348980197085, -96.62908498029151]}}, {"geometry": {"type": "Point", "coordinates": [-96.67949209999999, 40.8135352]}, "type": "Feature", "properties": {"neighborhood": "Woods Park", "encoding": "utf-8", "county": "Lancaster County", "street": "E O St", "lng": -96.67949209999999, "quality": "intersection", "city": "Lincoln", "confidence": 9, "state": "NE", "location": "N.29th & East O  St, Lincoln, NE", "provider": "google", "method": "geocode", "accuracy": "APPROXIMATE", "status": "OK", "case_no": "B4-077235", "bbox": {"northeast": [40.81488418029149, -96.67814311970848], "southwest": [40.8121862197085, -96.6808410802915]}, "address": "East O Street & North 29th Street, Lincoln, NE 68503, USA", "lat": 40.8135352, "postal": "68503", "ok": true, "geometry": {"type": "Point", "coordinates": [-96.67949209999999, 40.8135352]}, "country": "US"}, "bbox": {"northeast": [40.81488418029149, -96.67814311970848], "southwest": [40.8121862197085, -96.6808410802915]}}, {"geometry": {"type": "Point", "coordinates": [-96.7126447, 40.8553593]}, "type": "Feature", "properties": {"neighborhood": "Belmont", "encoding": "utf-8", "county": "Lancaster County", "street": "Superior St", "lng": -96.7126447, "quality": "street_address", "city": "Lincoln", "confidence": 9, "state": "NE", "location": "550 Superior, Lincoln, NE", "provider": "google", "housenumber": "550", "method": "geocode", "accuracy": "RANGE_INTERPOLATED", "status": "OK", "case_no": "B4-070436", "bbox": {"northeast": [40.8567015302915, -96.7112934697085], "southwest": [40.8540035697085, -96.7139914302915]}, "address": "550 Superior Street, Lincoln, NE 68521, USA", "lat": 40.8553593, "postal": "68521", "ok": true, "geometry": {"type": "Point", "coordinates": [-96.7126447, 40.8553593]}, "country": "US"}, "bbox": {"northeast": [40.8567015302915, -96.7112934697085], "southwest": [40.8540035697085, -96.7139914302915]}}, {"geometry": {"type": "Point", "coordinates": [-96.682187, 40.823899]}, "type": "Feature", "properties": {"neighborhood": "Clinton", "encoding": "utf-8", "county": "Lancaster County", "street": "N 27th St", "lng": -96.682187, "quality": "intersection", "city": "Lincoln", "confidence": 9, "state": "NE", "location": "N 27TH & APPLE ST, Lincoln, NE", "provider": "google", "method": "geocode", "accuracy": "APPROXIMATE", "status": "OK", "case_no": "B3-049177", "bbox": {"northeast": [40.82524798029149, -96.68083801970849], "southwest": [40.82255001970849, -96.68353598029151]}, "address": "North 27th Street & Apple Street, Lincoln, NE 68503, USA", "lat": 40.823899, "postal": "68503", "ok": true, "geometry": {"type": "Point", "coordinates": [-96.682187, 40.823899]}, "country": "US"}, "bbox": {"northeast": [40.82524798029149, -96.68083801970849], "southwest": [40.82255001970849, -96.68353598029151]}}, {"geometry": {"type": "Point", "coordinates": [-96.6933712, 40.7384049]}, "type": "Feature", "properties": {"status": "OK", "city": "Lincoln", "confidence": 9, "ok": true, "accuracy": "APPROXIMATE", "encoding": "utf-8", "geometry": {"type": "Point", "coordinates": [-96.6933712, 40.7384049]}, "country": "US", "address": "Pine Lake Road & Hazel Scott Drive, Lincoln, NE 68512, USA", "case_no": "B4-092182", "county": "Lancaster County", "state": "NE", "street": "Pine Lake Rd", "location": "HAZEL SCOTT DR & PINE LAKE, Lincoln, NE", "provider": "google", "lat": 40.7384049, "lng": -96.6933712, "postal": "68512", "quality": "intersection", "method": "geocode", "bbox": {"northeast": [40.7397538802915, -96.6920222197085], "southwest": [40.7370559197085, -96.69472018029151]}}, "bbox": {"northeast": [40.7397538802915, -96.6920222197085], "southwest": [40.7370559197085, -96.69472018029151]}}, {"geometry": {"type": "Point", "coordinates": [-96.686312, 40.805687]}, "type": "Feature", "properties": {"neighborhood": "Downtown", "encoding": "utf-8", "county": "Lancaster County", "street": "Randolph St", "lng": -96.686312, "quality": "intersection", "city": "Lincoln", "confidence": 9, "state": "NE", "location": "Capitol Pkwy & Randolph St, Lincoln, NE", "provider": "google", "method": "geocode", "accuracy": "APPROXIMATE", "status": "OK", "case_no": "B3-081979", "bbox": {"northeast": [40.8070359802915, -96.68496301970849], "southwest": [40.8043380197085, -96.68766098029151]}, "address": "Randolph Street & Capitol Parkway, Lincoln, NE 68510, USA", "lat": 40.805687, "postal": "68510", "ok": true, "geometry": {"type": "Point", "coordinates": [-96.686312, 40.805687]}, "country": "US"}, "bbox": {"northeast": [40.8070359802915, -96.68496301970849], "southwest": [40.8043380197085, -96.68766098029151]}}, {"geometry": {"type": "Point", "coordinates": [-96.656103, 40.793467]}, "type": "Feature", "properties": {"status": "OK", "city": "Lincoln", "confidence": 9, "ok": true, "accuracy": "APPROXIMATE", "encoding": "utf-8", "geometry": {"type": "Point", "coordinates": [-96.656103, 40.793467]}, "country": "US", "address": "South Cotner Boulevard & Franklin Street, Lincoln, NE 68506, USA", "case_no": "B3-041362", "county": "Lancaster County", "state": "NE", "street": "S Cotner Blvd", "location": "S Cotner & Franklin, Lincoln, NE", "provider": "google", "lat": 40.793467, "lng": -96.656103, "postal": "68506", "quality": "intersection", "method": "geocode", "bbox": {"northeast": [40.7948159802915, -96.65475401970849], "southwest": [40.7921180197085, -96.65745198029151]}}, "bbox": {"northeast": [40.7948159802915, -96.65475401970849], "southwest": [40.7921180197085, -96.65745198029151]}}, {"geometry": {"type": "Point", "coordinates": [-96.653622, 40.8486406]}, "type": "Feature", "properties": {"neighborhood": "University Place", "encoding": "utf-8", "county": "Lancaster County", "street": "N 48th St", "lng": -96.653622, "quality": "intersection", "city": "Lincoln", "confidence": 9, "state": "NE", "location": "48th & Fremont, Lincoln, NE", "provider": "google", "method": "geocode", "accuracy": "APPROXIMATE", "status": "OK", "case_no": "B5-032078", "bbox": {"northeast": [40.84998958029149, -96.6522730197085], "southwest": [40.84729161970849, -96.65497098029151]}, "address": "North 48th Street & Fremont Street, Lincoln, NE 68504, USA", "lat": 40.8486406, "postal": "68504", "ok": true, "geometry": {"type": "Point", "coordinates": [-96.653622, 40.8486406]}, "country": "US"}, "bbox": {"northeast": [40.84998958029149, -96.6522730197085], "southwest": [40.84729161970849, -96.65497098029151]}}, {"geometry": {"type": "Point", "coordinates": [-96.70551999999999, 40.813628]}, "type": "Feature", "properties": {"neighborhood": "Downtown", "encoding": "utf-8", "county": "Lancaster County", "street": "E O St", "lng": -96.70551999999999, "quality": "intersection", "city": "Lincoln", "confidence": 9, "state": "NE", "location": "11th & O, Lincoln, NE", "provider": "google", "method": "geocode", "accuracy": "APPROXIMATE", "status": "OK", "case_no": "B4-025657", "bbox": {"northeast": [40.8149769802915, -96.7041710197085], "southwest": [40.8122790197085, -96.7068689802915]}, "address": "East O Street & North 11th Street, Lincoln, NE 68508, USA", "lat": 40.813628, "postal": "68508", "ok": true, "geometry": {"type": "Point", "coordinates": [-96.70551999999999, 40.813628]}, "country": "US"}, "bbox": {"northeast": [40.8149769802915, -96.7041710197085], "southwest": [40.8122790197085, -96.7068689802915]}}, {"geometry": {"type": "Point", "coordinates": [-96.6728869, 40.7687958]}, "type": "Feature", "properties": {"status": "OK", "city": "Lincoln", "confidence": 9, "ok": true, "accuracy": "APPROXIMATE", "encoding": "utf-8", "geometry": {"type": "Point", "coordinates": [-96.6728869, 40.7687958]}, "country": "US", "address": "Nebraska 2 & South 33rd Court, Lincoln, NE 68516, USA", "case_no": "B5-034601", "county": "Lancaster County", "state": "NE", "street": "NE-2", "location": "S 33rd & Hwy 2, Lincoln, NE", "provider": "google", "lat": 40.7687958, "lng": -96.6728869, "postal": "68516", "quality": "intersection", "method": "geocode", "bbox": {"northeast": [40.7701447802915, -96.6715379197085], "southwest": [40.7674468197085, -96.6742358802915]}}, "bbox": {"northeast": [40.7701447802915, -96.6715379197085], "southwest": [40.7674468197085, -96.6742358802915]}}, {"geometry": {"type": "Point", "coordinates": [-96.7015893, 40.7835222]}, "type": "Feature", "properties": {"neighborhood": "Indian Village", "encoding": "utf-8", "county": "Lancaster County", "street": "S 14th St", "lng": -96.7015893, "quality": "intersection", "city": "Lincoln", "confidence": 9, "state": "NE", "location": "S 14 ST & OTOE, Lincoln, NE", "provider": "google", "method": "geocode", "accuracy": "APPROXIMATE", "status": "OK", "case_no": "B3-040182", "bbox": {"northeast": [40.7848711802915, -96.70024031970848], "southwest": [40.7821732197085, -96.7029382802915]}, "address": "South 14th Street & Otoe Street, Lincoln, NE 68502, USA", "lat": 40.7835222, "postal": "68502", "ok": true, "geometry": {"type": "Point", "coordinates": [-96.7015893, 40.7835222]}, "country": "US"}, "bbox": {"northeast": [40.7848711802915, -96.70024031970848], "southwest": [40.7821732197085, -96.7029382802915]}}, {"geometry": {"type": "Point", "coordinates": [-96.6059437, 40.8352973]}, "type": "Feature", "properties": {"status": "OK", "city": "Lincoln", "confidence": 9, "ok": true, "accuracy": "APPROXIMATE", "encoding": "utf-8", "geometry": {"type": "Point", "coordinates": [-96.6059437, 40.8352973]}, "country": "US", "address": "North 84th Street & Leighton Avenue, Lincoln, NE 68505, USA", "case_no": "B4-025044", "county": "Lancaster County", "state": "NE", "street": "N 84th St", "location": "N. 84th St. & Leighton Ave., Lincoln, NE", "provider": "google", "lat": 40.8352973, "lng": -96.6059437, "postal": "68505", "quality": "intersection", "method": "geocode", "bbox": {"northeast": [40.8366462802915, -96.60459471970849], "southwest": [40.8339483197085, -96.6072926802915]}}, "bbox": {"northeast": [40.8366462802915, -96.60459471970849], "southwest": [40.8339483197085, -96.6072926802915]}}, {"geometry": {"type": "Point", "coordinates": [-96.62391500000001, 40.77378400000001]}, "type": "Feature", "properties": {"encoding": "utf-8", "county": "Lancaster County", "street": "S 70th St", "lng": -96.62391500000001, "quality": "street_address", "city": "Lincoln", "confidence": 9, "state": "NE", "location": "3800 s 70th, Lincoln, NE", "provider": "google", "housenumber": "3800", "method": "geocode", "accuracy": "ROOFTOP", "status": "OK", "case_no": "B3-104750", "bbox": {"northeast": [40.77513298029151, -96.62256601970851], "southwest": [40.77243501970851, -96.62526398029152]}, "address": "3800 South 70th Street, Lincoln, NE 68506, USA", "lat": 40.77378400000001, "postal": "68506", "ok": true, "geometry": {"type": "Point", "coordinates": [-96.62391500000001, 40.77378400000001]}, "country": "US"}, "bbox": {"northeast": [40.77513298029151, -96.62256601970851], "southwest": [40.77243501970851, -96.62526398029152]}}, {"geometry": {"type": "Point", "coordinates": [-96.67949209999999, 40.8135352]}, "type": "Feature", "properties": {"neighborhood": "Woods Park", "encoding": "utf-8", "county": "Lancaster County", "street": "E O St", "lng": -96.67949209999999, "quality": "intersection", "city": "Lincoln", "confidence": 9, "state": "NE", "location": "29 P & East O, Lincoln, NE", "provider": "google", "method": "geocode", "accuracy": "APPROXIMATE", "status": "OK", "case_no": "B3-092565", "bbox": {"northeast": [40.81488418029149, -96.67814311970848], "southwest": [40.8121862197085, -96.6808410802915]}, "address": "East O Street & North 29th Street, Lincoln, NE 68503, USA", "lat": 40.8135352, "postal": "68503", "ok": true, "geometry": {"type": "Point", "coordinates": [-96.67949209999999, 40.8135352]}, "country": "US"}, "bbox": {"northeast": [40.81488418029149, -96.67814311970848], "southwest": [40.8121862197085, -96.6808410802915]}}, {"geometry": {"type": "Point", "coordinates": [-96.66494589999999, 40.7916316]}, "type": "Feature", "properties": {"neighborhood": "40th&A", "encoding": "utf-8", "county": "Lancaster County", "street": "South St", "lng": -96.66494589999999, "quality": "intersection", "city": "Lincoln", "confidence": 9, "state": "NE", "location": "normal & south, Lincoln, NE", "provider": "google", "method": "geocode", "accuracy": "APPROXIMATE", "status": "OK", "case_no": "B4-094698", "bbox": {"northeast": [40.79298058029149, -96.6635969197085], "southwest": [40.79028261970849, -96.6662948802915]}, "address": "South Street & Normal Boulevard, Lincoln, NE 68506, USA", "lat": 40.7916316, "postal": "68506", "ok": true, "geometry": {"type": "Point", "coordinates": [-96.66494589999999, 40.7916316]}, "country": "US"}, "bbox": {"northeast": [40.79298058029149, -96.6635969197085], "southwest": [40.79028261970849, -96.6662948802915]}}, {"geometry": {"type": "Point", "coordinates": [-96.7084891, 40.810318]}, "type": "Feature", "properties": {"neighborhood": "South Salt Creek", "encoding": "utf-8", "county": "Lancaster County", "street": "S 9th St", "lng": -96.7084891, "quality": "intersection", "city": "Lincoln", "confidence": 9, "state": "NE", "location": "S. 9th & L St, Lincoln, NE", "provider": "google", "method": "geocode", "accuracy": "APPROXIMATE", "status": "OK", "case_no": "B5-003845", "bbox": {"northeast": [40.8116669802915, -96.70714011970848], "southwest": [40.8089690197085, -96.7098380802915]}, "address": "South 9th Street & L Street, Lincoln, NE 68508, USA", "lat": 40.810318, "postal": "68508", "ok": true, "geometry": {"type": "Point", "coordinates": [-96.7084891, 40.810318]}, "country": "US"}, "bbox": {"northeast": [40.8116669802915, -96.70714011970848], "southwest": [40.8089690197085, -96.7098380802915]}}, {"geometry": {"type": "Point", "coordinates": [-96.696788, 40.805821]}, "type": "Feature", "properties": {"neighborhood": "Downtown", "encoding": "utf-8", "county": "Lancaster County", "street": "S 17th St", "lng": -96.696788, "quality": "intersection", "city": "Lincoln", "confidence": 9, "state": "NE", "location": "G St & 17, Lincoln, NE", "provider": "google", "method": "geocode", "accuracy": "APPROXIMATE", "status": "OK", "case_no": "B4-054109", "bbox": {"northeast": [40.8071699802915, -96.69543901970849], "southwest": [40.80447201970851, -96.69813698029151]}, "address": "South 17th Street & G Street, Lincoln, NE 68508, USA", "lat": 40.805821, "postal": "68508", "ok": true, "geometry": {"type": "Point", "coordinates": [-96.696788, 40.805821]}, "country": "US"}, "bbox": {"northeast": [40.8071699802915, -96.69543901970849], "southwest": [40.80447201970851, -96.69813698029151]}}, {"geometry": {"type": "Point", "coordinates": [-96.70116159999999, 40.813609]}, "type": "Feature", "properties": {"neighborhood": "Downtown", "encoding": "utf-8", "county": "Lancaster County", "street": "E O St", "lng": -96.70116159999999, "quality": "intersection", "city": "Lincoln", "confidence": 9, "state": "NE", "location": "14th & east O, Lincoln, NE", "provider": "google", "method": "geocode", "accuracy": "APPROXIMATE", "status": "OK", "case_no": "B4-062148", "bbox": {"northeast": [40.8149579802915, -96.69981261970848], "southwest": [40.8122600197085, -96.70251058029149]}, "address": "East O Street & North 14th Street, Lincoln, NE 68508, USA", "lat": 40.813609, "postal": "68508", "ok": true, "geometry": {"type": "Point", "coordinates": [-96.70116159999999, 40.813609]}, "country": "US"}, "bbox": {"northeast": [40.8149579802915, -96.69981261970848], "southwest": [40.8122600197085, -96.70251058029149]}}, {"geometry": {"type": "Point", "coordinates": [-96.6968208, 40.784474]}, "type": "Feature", "properties": {"neighborhood": "Indian Village", "encoding": "utf-8", "county": "Lancaster County", "street": "Van Dorn St", "lng": -96.6968208, "quality": "intersection", "city": "Lincoln", "confidence": 9, "state": "NE", "location": "17th St & Van Dorn St, Lincoln, NE", "provider": "google", "method": "geocode", "accuracy": "APPROXIMATE", "status": "OK", "case_no": "B3-071609", "bbox": {"northeast": [40.78582298029149, -96.69547181970849], "southwest": [40.78312501970849, -96.6981697802915]}, "address": "Van Dorn Street & South 17th Street, Lincoln, NE 68502, USA", "lat": 40.784474, "postal": "68502", "ok": true, "geometry": {"type": "Point", "coordinates": [-96.6968208, 40.784474]}, "country": "US"}, "bbox": {"northeast": [40.78582298029149, -96.69547181970849], "southwest": [40.78312501970849, -96.6981697802915]}}, {"geometry": {"type": "Point", "coordinates": [-96.6536359, 40.8393093]}, "type": "Feature", "properties": {"neighborhood": "University Place", "encoding": "utf-8", "county": "Lancaster County", "street": "N 48th St", "lng": -96.6536359, "quality": "intersection", "city": "Lincoln", "confidence": 9, "state": "NE", "location": "N 48 St. & St.Paul Ave., Lincoln, NE", "provider": "google", "method": "geocode", "accuracy": "APPROXIMATE", "status": "OK", "case_no": "B4-099679", "bbox": {"northeast": [40.84065828029149, -96.65228691970849], "southwest": [40.83796031970849, -96.65498488029151]}, "address": "North 48th Street & Saint Paul Avenue, Lincoln, NE 68504, USA", "lat": 40.8393093, "postal": "68504", "ok": true, "geometry": {"type": "Point", "coordinates": [-96.6536359, 40.8393093]}, "country": "US"}, "bbox": {"northeast": [40.84065828029149, -96.65228691970849], "southwest": [40.83796031970849, -96.65498488029151]}}, {"geometry": {"type": "Point", "coordinates": [-96.6538099, 40.762531]}, "type": "Feature", "properties": {"status": "OK", "city": "Lincoln", "confidence": 9, "ok": true, "accuracy": "APPROXIMATE", "encoding": "utf-8", "geometry": {"type": "Point", "coordinates": [-96.6538099, 40.762531]}, "country": "US", "address": "South 48th Street & Claire Avenue, Lincoln, NE 68516, USA", "case_no": "B4-067912", "county": "Lancaster County", "state": "NE", "street": "S 48th St", "location": "S 48TH ST & CLAIRE, Lincoln, NE", "provider": "google", "lat": 40.762531, "lng": -96.6538099, "postal": "68516", "quality": "intersection", "method": "geocode", "bbox": {"northeast": [40.7638799802915, -96.65246091970849], "southwest": [40.7611820197085, -96.65515888029151]}}, "bbox": {"northeast": [40.7638799802915, -96.65246091970849], "southwest": [40.7611820197085, -96.65515888029151]}}, {"geometry": {"type": "Point", "coordinates": [-96.705929, 40.842008]}, "type": "Feature", "properties": {"neighborhood": "Belmont", "encoding": "utf-8", "county": "Lancaster County", "street": "N 11th St", "lng": -96.705929, "quality": "intersection", "city": "Lincoln", "confidence": 9, "state": "NE", "location": "N 11th & Butler Ave, Lincoln, NE", "provider": "google", "method": "geocode", "accuracy": "APPROXIMATE", "status": "OK", "case_no": "B3-077193", "bbox": {"northeast": [40.8433569802915, -96.70458001970849], "southwest": [40.8406590197085, -96.70727798029151]}, "address": "North 11th Street & Butler Avenue, Lincoln, NE 68521, USA", "lat": 40.842008, "postal": "68521", "ok": true, "geometry": {"type": "Point", "coordinates": [-96.705929, 40.842008]}, "country": "US"}, "bbox": {"northeast": [40.8433569802915, -96.70458001970849], "southwest": [40.8406590197085, -96.70727798029151]}}, {"geometry": {"type": "Point", "coordinates": [-96.68466169999999, 40.8208156]}, "type": "Feature", "properties": {"neighborhood": "Hawley", "encoding": "utf-8", "county": "Lancaster County", "street": "Vine St", "lng": -96.68466169999999, "quality": "intersection", "city": "Lincoln", "confidence": 9, "state": "NE", "location": "N.25th & Vine St., Lincoln, NE", "provider": "google", "method": "geocode", "accuracy": "APPROXIMATE", "status": "OK", "case_no": "B4-094429", "bbox": {"northeast": [40.82216458029149, -96.6833127197085], "southwest": [40.8194666197085, -96.6860106802915]}, "address": "Vine Street & North 25th Street, Lincoln, NE 68503, USA", "lat": 40.8208156, "postal": "68503", "ok": true, "geometry": {"type": "Point", "coordinates": [-96.68466169999999, 40.8208156]}, "country": "US"}, "bbox": {"northeast": [40.82216458029149, -96.6833127197085], "southwest": [40.8194666197085, -96.6860106802915]}}, {"geometry": {"type": "Point", "coordinates": [-96.65383399999999, 40.830343]}, "type": "Feature", "properties": {"status": "OK", "city": "Lincoln", "confidence": 9, "ok": true, "accuracy": "APPROXIMATE", "encoding": "utf-8", "geometry": {"type": "Point", "coordinates": [-96.65383399999999, 40.830343]}, "country": "US", "address": "University of Nebraska-Lincoln, University of Nebraska-Lincoln: East Campus, North 48th Street & Martin Street, Lincoln, NE 68503, USA", "case_no": "B4-087756", "county": "Lancaster County", "state": "NE", "street": "N 48th St", "location": "MARTIN & 48 TH, Lincoln, NE", "provider": "google", "lat": 40.830343, "lng": -96.65383399999999, "postal": "68503", "quality": "intersection", "method": "geocode", "bbox": {"northeast": [40.8316919802915, -96.65248501970848], "southwest": [40.8289940197085, -96.6551829802915]}}, "bbox": {"northeast": [40.8316919802915, -96.65248501970848], "southwest": [40.8289940197085, -96.6551829802915]}}, {"geometry": {"type": "Point", "coordinates": [-96.653666, 40.798932]}, "type": "Feature", "properties": {"status": "OK", "city": "Lincoln", "confidence": 9, "ok": true, "accuracy": "APPROXIMATE", "encoding": "utf-8", "geometry": {"type": "Point", "coordinates": [-96.653666, 40.798932]}, "country": "US", "address": "A Street & South 48th Street, Lincoln, NE 68510, USA", "case_no": "B3-040902", "county": "Lancaster County", "state": "NE", "street": "A St", "location": "S 48th & A st, Lincoln, NE", "provider": "google", "lat": 40.798932, "lng": -96.653666, "postal": "68510", "quality": "intersection", "method": "geocode", "bbox": {"northeast": [40.8002809802915, -96.65231701970849], "southwest": [40.7975830197085, -96.6550149802915]}}, "bbox": {"northeast": [40.8002809802915, -96.65231701970849], "southwest": [40.7975830197085, -96.6550149802915]}}, {"geometry": {"type": "Point", "coordinates": [-96.6914157, 40.755525]}, "type": "Feature", "properties": {"status": "OK", "city": "Lincoln", "confidence": 9, "ok": true, "accuracy": "APPROXIMATE", "encoding": "utf-8", "geometry": {"type": "Point", "coordinates": [-96.6914157, 40.755525]}, "country": "US", "address": "Old Cheney Road & Tipperary Trail, Lincoln, NE 68512, USA", "case_no": "B4-096832", "county": "Lancaster County", "state": "NE", "street": "Old Cheney Rd", "location": "OLD CHENEY & TIPPERARY TRL, Lincoln, NE", "provider": "google", "lat": 40.755525, "lng": -96.6914157, "postal": "68512", "quality": "intersection", "method": "geocode", "bbox": {"northeast": [40.75687398029149, -96.6900667197085], "southwest": [40.7541760197085, -96.6927646802915]}}, "bbox": {"northeast": [40.75687398029149, -96.6900667197085], "southwest": [40.7541760197085, -96.6927646802915]}}, {"geometry": {"type": "Point", "coordinates": [-96.7047327, 40.8575189]}, "type": "Feature", "properties": {"neighborhood": "Belmont", "encoding": "utf-8", "county": "Lancaster County", "street": "Superior St", "lng": -96.7047327, "quality": "intersection", "city": "Lincoln", "confidence": 9, "state": "NE", "location": "LEWIS & SUPERIOR, Lincoln, NE", "provider": "google", "method": "geocode", "accuracy": "APPROXIMATE", "status": "OK", "case_no": "B5-025692", "bbox": {"northeast": [40.8588678802915, -96.7033837197085], "southwest": [40.8561699197085, -96.7060816802915]}, "address": "Superior Street & Lewis Avenue, Lincoln, NE 68521, USA", "lat": 40.8575189, "postal": "68521", "ok": true, "geometry": {"type": "Point", "coordinates": [-96.7047327, 40.8575189]}, "country": "US"}, "bbox": {"northeast": [40.8588678802915, -96.7033837197085], "southwest": [40.8561699197085, -96.7060816802915]}}, {"geometry": {"type": "Point", "coordinates": [-96.65849999999999, 40.813541]}, "type": "Feature", "properties": {"neighborhood": "Hartley", "encoding": "utf-8", "county": "Lancaster County", "street": "E O St", "lng": -96.65849999999999, "quality": "intersection", "city": "Lincoln", "confidence": 9, "state": "NE", "location": "44 St. & East O St., Lincoln, NE", "provider": "google", "method": "geocode", "accuracy": "APPROXIMATE", "status": "OK", "case_no": "B4-106176", "bbox": {"northeast": [40.8148899802915, -96.65715101970848], "southwest": [40.8121920197085, -96.6598489802915]}, "address": "East O Street & North 44th Street, Lincoln, NE 68503, USA", "lat": 40.813541, "postal": "68503", "ok": true, "geometry": {"type": "Point", "coordinates": [-96.65849999999999, 40.813541]}, "country": "US"}, "bbox": {"northeast": [40.8148899802915, -96.65715101970848], "southwest": [40.8121920197085, -96.6598489802915]}}, {"geometry": {"type": "Point", "coordinates": [-96.705575, 40.804754]}, "type": "Feature", "properties": {"neighborhood": "Everett", "encoding": "utf-8", "county": "Lancaster County", "street": "F St", "lng": -96.705575, "quality": "intersection", "city": "Lincoln", "confidence": 9, "state": "NE", "location": "11 & F, Lincoln, NE", "provider": "google", "method": "geocode", "accuracy": "APPROXIMATE", "status": "OK", "case_no": "B5-036569", "bbox": {"northeast": [40.80610298029149, -96.7042260197085], "southwest": [40.80340501970849, -96.7069239802915]}, "address": "F Street & South 11th Street, Lincoln, NE 68508, USA", "lat": 40.804754, "postal": "68508", "ok": true, "geometry": {"type": "Point", "coordinates": [-96.705575, 40.804754]}, "country": "US"}, "bbox": {"northeast": [40.80610298029149, -96.7042260197085], "southwest": [40.80340501970849, -96.7069239802915]}}, {"geometry": {"type": "Point", "coordinates": [-96.6251975, 40.7783585]}, "type": "Feature", "properties": {"status": "OK", "city": "Lincoln", "confidence": 9, "ok": true, "accuracy": "APPROXIMATE", "encoding": "utf-8", "geometry": {"type": "Point", "coordinates": [-96.6251975, 40.7783585]}, "country": "US", "address": "South 70th Street & Holmes North Shore Road, Lincoln, NE 68506, USA", "case_no": "B5-023780", "county": "Lancaster County", "state": "NE", "street": "S 70th St", "location": "70th & holmes north shore, Lincoln, NE", "provider": "google", "lat": 40.7783585, "lng": -96.6251975, "postal": "68506", "quality": "intersection", "method": "geocode", "bbox": {"northeast": [40.7797074802915, -96.62384851970849], "southwest": [40.7770095197085, -96.62654648029151]}}, "bbox": {"northeast": [40.7797074802915, -96.62384851970849], "southwest": [40.7770095197085, -96.62654648029151]}}, {"geometry": {"type": "Point", "coordinates": [-96.70713819999999, 40.79184900000001]}, "type": "Feature", "properties": {"neighborhood": "Irvingdale", "encoding": "utf-8", "county": "Lancaster County", "street": "S 10th St", "lng": -96.70713819999999, "quality": "intersection", "city": "Lincoln", "confidence": 9, "state": "NE", "location": "S. 10th St. & South St., Lincoln, NE", "provider": "google", "method": "geocode", "accuracy": "APPROXIMATE", "status": "OK", "case_no": "B4-080632", "bbox": {"northeast": [40.79319798029151, -96.70578921970849], "southwest": [40.79050001970851, -96.7084871802915]}, "address": "South 10th Street & South Street, Lincoln, NE 68502, USA", "lat": 40.79184900000001, "postal": "68502", "ok": true, "geometry": {"type": "Point", "coordinates": [-96.70713819999999, 40.79184900000001]}, "country": "US"}, "bbox": {"northeast": [40.79319798029151, -96.70578921970849], "southwest": [40.79050001970851, -96.7084871802915]}}, {"geometry": {"type": "Point", "coordinates": [-96.704022, 40.815849]}, "type": "Feature", "properties": {"neighborhood": "Downtown", "encoding": "utf-8", "county": "Lancaster County", "street": "Q St", "lng": -96.704022, "quality": "intersection", "city": "Lincoln", "confidence": 9, "state": "NE", "location": "12TH & Q ST, Lincoln, NE", "provider": "google", "method": "geocode", "accuracy": "APPROXIMATE", "status": "OK", "case_no": "B3-046104", "bbox": {"northeast": [40.8171979802915, -96.70267301970848], "southwest": [40.8145000197085, -96.70537098029149]}, "address": "Q Street & North 12th Street, Lincoln, NE 68508, USA", "lat": 40.815849, "postal": "68508", "ok": true, "geometry": {"type": "Point", "coordinates": [-96.704022, 40.815849]}, "country": "US"}, "bbox": {"northeast": [40.8171979802915, -96.70267301970848], "southwest": [40.8145000197085, -96.70537098029149]}}, {"geometry": {"type": "Point", "coordinates": [-96.65366949999999, 40.8206976]}, "type": "Feature", "properties": {"neighborhood": "Hartley", "encoding": "utf-8", "county": "Lancaster County", "street": "Vine St", "lng": -96.65366949999999, "quality": "intersection", "city": "Lincoln", "confidence": 9, "state": "NE", "location": "48th & vine, Lincoln, NE", "provider": "google", "method": "geocode", "accuracy": "APPROXIMATE", "status": "OK", "case_no": "B4-090181", "bbox": {"northeast": [40.82204658029149, -96.6523205197085], "southwest": [40.81934861970849, -96.6550184802915]}, "address": "Vine Street & North 48th Street, Lincoln, NE 68504, USA", "lat": 40.8206976, "postal": "68504", "ok": true, "geometry": {"type": "Point", "coordinates": [-96.65366949999999, 40.8206976]}, "country": "US"}, "bbox": {"northeast": [40.82204658029149, -96.6523205197085], "southwest": [40.81934861970849, -96.6550184802915]}}, {"geometry": {"type": "Point", "coordinates": [-96.6968266, 40.783585]}, "type": "Feature", "properties": {"neighborhood": "Indian Village", "encoding": "utf-8", "county": "Lancaster County", "street": "S 17th St", "lng": -96.6968266, "quality": "intersection", "city": "Lincoln", "confidence": 9, "state": "NE", "location": "17th & otoe, Lincoln, NE", "provider": "google", "method": "geocode", "accuracy": "APPROXIMATE", "status": "OK", "case_no": "B4-049988", "bbox": {"northeast": [40.7849339802915, -96.6954776197085], "southwest": [40.7822360197085, -96.6981755802915]}, "address": "South 17th Street & Otoe Street, Lincoln, NE 68502, USA", "lat": 40.783585, "postal": "68502", "ok": true, "geometry": {"type": "Point", "coordinates": [-96.6968266, 40.783585]}, "country": "US"}, "bbox": {"northeast": [40.7849339802915, -96.6954776197085], "southwest": [40.7822360197085, -96.6981755802915]}}, {"geometry": {"type": "Point", "coordinates": [-96.6787805, 40.8207405]}, "type": "Feature", "properties": {"neighborhood": "Hartley", "encoding": "utf-8", "county": "Lancaster County", "street": "Vine St", "lng": -96.6787805, "quality": "intersection", "city": "Lincoln", "confidence": 9, "state": "NE", "location": "30 & VINE ST, Lincoln, NE", "provider": "google", "method": "geocode", "accuracy": "APPROXIMATE", "status": "OK", "case_no": "B5-020294", "bbox": {"northeast": [40.8220894802915, -96.67743151970849], "southwest": [40.8193915197085, -96.68012948029151]}, "address": "Vine Street & North 30th Street, Lincoln, NE 68503, USA", "lat": 40.8207405, "postal": "68503", "ok": true, "geometry": {"type": "Point", "coordinates": [-96.6787805, 40.8207405]}, "country": "US"}, "bbox": {"northeast": [40.8220894802915, -96.67743151970849], "southwest": [40.8193915197085, -96.68012948029151]}}, {"geometry": {"type": "Point", "coordinates": [-96.6825112, 40.7771727]}, "type": "Feature", "properties": {"neighborhood": "Country Club", "encoding": "utf-8", "county": "Lancaster County", "street": "S 27th St", "lng": -96.6825112, "quality": "intersection", "city": "Lincoln", "confidence": 9, "state": "NE", "location": "S 27 & Calvert, Lincoln, NE", "provider": "google", "method": "geocode", "accuracy": "APPROXIMATE", "status": "OK", "case_no": "B3-104457", "bbox": {"northeast": [40.7785216802915, -96.68116221970848], "southwest": [40.7758237197085, -96.6838601802915]}, "address": "South 27th Street & Calvert Street, Lincoln, NE 68502, USA", "lat": 40.7771727, "postal": "68502", "ok": true, "geometry": {"type": "Point", "coordinates": [-96.6825112, 40.7771727]}, "country": "US"}, "bbox": {"northeast": [40.7785216802915, -96.68116221970848], "southwest": [40.7758237197085, -96.6838601802915]}}, {"geometry": {"type": "Point", "coordinates": [-96.69536699999999, 40.802499]}, "type": "Feature", "properties": {"neighborhood": "Near South", "encoding": "utf-8", "county": "Lancaster County", "street": "D St", "lng": -96.69536699999999, "quality": "intersection", "city": "Lincoln", "confidence": 9, "state": "NE", "location": "D St & S. 18th St, Lincoln, NE", "provider": "google", "method": "geocode", "accuracy": "APPROXIMATE", "status": "OK", "case_no": "B4-103593", "bbox": {"northeast": [40.80384798029149, -96.69401801970848], "southwest": [40.80115001970849, -96.6967159802915]}, "address": "D Street & South 18th Street, Lincoln, NE 68502, USA", "lat": 40.802499, "postal": "68502", "ok": true, "geometry": {"type": "Point", "coordinates": [-96.69536699999999, 40.802499]}, "country": "US"}, "bbox": {"northeast": [40.80384798029149, -96.69401801970848], "southwest": [40.80115001970849, -96.6967159802915]}}, {"geometry": {"type": "Point", "coordinates": [-96.66494589999999, 40.7916316]}, "type": "Feature", "properties": {"neighborhood": "40th&A", "encoding": "utf-8", "county": "Lancaster County", "street": "South St", "lng": -96.66494589999999, "quality": "intersection", "city": "Lincoln", "confidence": 9, "state": "NE", "location": "normal & south, Lincoln, NE", "provider": "google", "method": "geocode", "accuracy": "APPROXIMATE", "status": "OK", "case_no": "B3-119591", "bbox": {"northeast": [40.79298058029149, -96.6635969197085], "southwest": [40.79028261970849, -96.6662948802915]}, "address": "South Street & Normal Boulevard, Lincoln, NE 68506, USA", "lat": 40.7916316, "postal": "68506", "ok": true, "geometry": {"type": "Point", "coordinates": [-96.66494589999999, 40.7916316]}, "country": "US"}, "bbox": {"northeast": [40.79298058029149, -96.6635969197085], "southwest": [40.79028261970849, -96.6662948802915]}}, {"geometry": {"type": "Point", "coordinates": [-96.6250573, 40.806093]}, "type": "Feature", "properties": {"status": "OK", "city": "Lincoln", "confidence": 9, "ok": true, "accuracy": "APPROXIMATE", "encoding": "utf-8", "geometry": {"type": "Point", "coordinates": [-96.6250573, 40.806093]}, "country": "US", "address": "South 70th Street & South Wedgewood Drive, Lincoln, NE 68510, USA", "case_no": "B4-072817", "county": "Lancaster County", "state": "NE", "street": "S 70th St", "location": "70th & S Wedgewood, Lincoln, NE", "provider": "google", "lat": 40.806093, "lng": -96.6250573, "postal": "68510", "quality": "intersection", "method": "geocode", "bbox": {"northeast": [40.80744198029149, -96.6237083197085], "southwest": [40.80474401970849, -96.6264062802915]}}, "bbox": {"northeast": [40.80744198029149, -96.6237083197085], "southwest": [40.80474401970849, -96.6264062802915]}}, {"geometry": {"type": "Point", "coordinates": [-96.6523495, 40.8425575]}, "type": "Feature", "properties": {"neighborhood": "University Place", "encoding": "utf-8", "county": "Lancaster County", "street": "Adams St", "lng": -96.6523495, "quality": "intersection", "city": "Lincoln", "confidence": 9, "state": "NE", "location": "ADAMS & 49, Lincoln, NE", "provider": "google", "method": "geocode", "accuracy": "APPROXIMATE", "status": "OK", "case_no": "B3-059009", "bbox": {"northeast": [40.84390648029149, -96.65100051970849], "southwest": [40.84120851970849, -96.6536984802915]}, "address": "Adams Street & North 49th Street, Lincoln, NE 68504, USA", "lat": 40.8425575, "postal": "68504", "ok": true, "geometry": {"type": "Point", "coordinates": [-96.6523495, 40.8425575]}, "country": "US"}, "bbox": {"northeast": [40.84390648029149, -96.65100051970849], "southwest": [40.84120851970849, -96.6536984802915]}}, {"geometry": {"type": "Point", "coordinates": [-96.73798359999999, 40.872083]}, "type": "Feature", "properties": {"neighborhood": "Highlands", "encoding": "utf-8", "county": "Lancaster County", "street": "NW 12th St", "lng": -96.73798359999999, "quality": "intersection", "city": "Lincoln", "confidence": 9, "state": "NE", "location": "W. FLETCHER & NW 12TH, Lincoln, NE", "provider": "google", "method": "geocode", "accuracy": "APPROXIMATE", "status": "OK", "case_no": "B3-082069", "bbox": {"northeast": [40.87343198029149, -96.73663461970848], "southwest": [40.87073401970849, -96.73933258029149]}, "address": "Northwest 12th Street & West Fletcher Avenue, Lincoln, NE 68521, USA", "lat": 40.872083, "postal": "68521", "ok": true, "geometry": {"type": "Point", "coordinates": [-96.73798359999999, 40.872083]}, "country": "US"}, "bbox": {"northeast": [40.87343198029149, -96.73663461970848], "southwest": [40.87073401970849, -96.73933258029149]}}, {"geometry": {"type": "Point", "coordinates": [-96.69408250000001, 40.8147134]}, "type": "Feature", "properties": {"neighborhood": "Downtown", "encoding": "utf-8", "county": "Lancaster County", "street": "N Antelope Valley Pkwy", "lng": -96.69408250000001, "quality": "intersection", "city": "Lincoln", "confidence": 9, "state": "NE", "location": "N Antelope Valley Pkwy & P St, Lincoln, NE", "provider": "google", "method": "geocode", "accuracy": "APPROXIMATE", "status": "OK", "case_no": "B4-086384", "bbox": {"northeast": [40.81606238029149, -96.69273351970851], "southwest": [40.8133644197085, -96.69543148029152]}, "address": "North Antelope Valley Parkway & P Street, Lincoln, NE 68508, USA", "lat": 40.8147134, "postal": "68508", "ok": true, "geometry": {"type": "Point", "coordinates": [-96.69408250000001, 40.8147134]}, "country": "US"}, "bbox": {"northeast": [40.81606238029149, -96.69273351970851], "southwest": [40.8133644197085, -96.69543148029152]}}, {"geometry": {"type": "Point", "coordinates": [-96.7069928, 40.8125186]}, "type": "Feature", "properties": {"neighborhood": "Downtown", "encoding": "utf-8", "county": "Lancaster County", "street": "S 10th St", "lng": -96.7069928, "quality": "intersection", "city": "Lincoln", "confidence": 9, "state": "NE", "location": "10th & N St., Lincoln, NE", "provider": "google", "method": "geocode", "accuracy": "APPROXIMATE", "status": "OK", "case_no": "B3-101849", "bbox": {"northeast": [40.8138675802915, -96.7056438197085], "southwest": [40.8111696197085, -96.7083417802915]}, "address": "South 10th Street & N Street, Lincoln, NE 68527, USA", "lat": 40.8125186, "postal": "68527", "ok": true, "geometry": {"type": "Point", "coordinates": [-96.7069928, 40.8125186]}, "country": "US"}, "bbox": {"northeast": [40.8138675802915, -96.7056438197085], "southwest": [40.8111696197085, -96.7083417802915]}}, {"geometry": {"type": "Point", "coordinates": [-96.7457854, 40.8138022]}, "type": "Feature", "properties": {"status": "OK", "city": "Lincoln", "confidence": 9, "ok": true, "accuracy": "APPROXIMATE", "encoding": "utf-8", "geometry": {"type": "Point", "coordinates": [-96.7457854, 40.8138022]}, "country": "US", "address": "West O Street & Northwest 17th Street, Lincoln, NE 68528, USA", "case_no": "B3-081359", "county": "Lancaster County", "state": "NE", "street": "W O St", "location": "17th & O, Lincoln, NE", "provider": "google", "lat": 40.8138022, "lng": -96.7457854, "postal": "68528", "quality": "intersection", "method": "geocode", "bbox": {"northeast": [40.81515118029149, -96.74443641970849], "southwest": [40.81245321970849, -96.74713438029151]}}, "bbox": {"northeast": [40.81515118029149, -96.74443641970849], "southwest": [40.81245321970849, -96.74713438029151]}}, {"geometry": {"type": "Point", "coordinates": [-96.6933712, 40.7384049]}, "type": "Feature", "properties": {"status": "OK", "city": "Lincoln", "confidence": 9, "ok": true, "accuracy": "APPROXIMATE", "encoding": "utf-8", "geometry": {"type": "Point", "coordinates": [-96.6933712, 40.7384049]}, "country": "US", "address": "Pine Lake Road & Hazel Scott Drive, Lincoln, NE 68512, USA", "case_no": "B5-037491", "county": "Lancaster County", "state": "NE", "street": "Pine Lake Rd", "location": "Hazel Scott Dr. & Pine Lake Rd., Lincoln, NE", "provider": "google", "lat": 40.7384049, "lng": -96.6933712, "postal": "68512", "quality": "intersection", "method": "geocode", "bbox": {"northeast": [40.7397538802915, -96.6920222197085], "southwest": [40.7370559197085, -96.69472018029151]}}, "bbox": {"northeast": [40.7397538802915, -96.6920222197085], "southwest": [40.7370559197085, -96.69472018029151]}}, {"geometry": {"type": "Point", "coordinates": [-96.6250573, 40.806093]}, "type": "Feature", "properties": {"status": "OK", "city": "Lincoln", "confidence": 9, "ok": true, "accuracy": "APPROXIMATE", "encoding": "utf-8", "geometry": {"type": "Point", "coordinates": [-96.6250573, 40.806093]}, "country": "US", "address": "South 70th Street & South Wedgewood Drive, Lincoln, NE 68510, USA", "case_no": "B3-076513", "county": "Lancaster County", "state": "NE", "street": "S 70th St", "location": "S 70th & S Wedgewood, Lincoln, NE", "provider": "google", "lat": 40.806093, "lng": -96.6250573, "postal": "68510", "quality": "intersection", "method": "geocode", "bbox": {"northeast": [40.80744198029149, -96.6237083197085], "southwest": [40.80474401970849, -96.6264062802915]}}, "bbox": {"northeast": [40.80744198029149, -96.6237083197085], "southwest": [40.80474401970849, -96.6264062802915]}}, {"geometry": {"type": "Point", "coordinates": [-96.65366949999999, 40.8206976]}, "type": "Feature", "properties": {"neighborhood": "Hartley", "encoding": "utf-8", "county": "Lancaster County", "street": "Vine St", "lng": -96.65366949999999, "quality": "intersection", "city": "Lincoln", "confidence": 9, "state": "NE", "location": "48th & vine, Lincoln, NE", "provider": "google", "method": "geocode", "accuracy": "APPROXIMATE", "status": "OK", "case_no": "B3-103503", "bbox": {"northeast": [40.82204658029149, -96.6523205197085], "southwest": [40.81934861970849, -96.6550184802915]}, "address": "Vine Street & North 48th Street, Lincoln, NE 68504, USA", "lat": 40.8206976, "postal": "68504", "ok": true, "geometry": {"type": "Point", "coordinates": [-96.65366949999999, 40.8206976]}, "country": "US"}, "bbox": {"northeast": [40.82204658029149, -96.6523205197085], "southwest": [40.81934861970849, -96.6550184802915]}}, {"geometry": {"type": "Point", "coordinates": [-96.66494589999999, 40.7916316]}, "type": "Feature", "properties": {"neighborhood": "40th&A", "encoding": "utf-8", "county": "Lancaster County", "street": "South St", "lng": -96.66494589999999, "quality": "intersection", "city": "Lincoln", "confidence": 9, "state": "NE", "location": "South Street & Normal Boulevard, Lincoln, NE", "provider": "google", "method": "geocode", "accuracy": "APPROXIMATE", "status": "OK", "case_no": "B5-024535", "bbox": {"northeast": [40.79298058029149, -96.6635969197085], "southwest": [40.79028261970849, -96.6662948802915]}, "address": "South Street & Normal Boulevard, Lincoln, NE 68506, USA", "lat": 40.7916316, "postal": "68506", "ok": true, "geometry": {"type": "Point", "coordinates": [-96.66494589999999, 40.7916316]}, "country": "US"}, "bbox": {"northeast": [40.79298058029149, -96.6635969197085], "southwest": [40.79028261970849, -96.6662948802915]}}, {"geometry": {"type": "Point", "coordinates": [-96.68204639999999, 40.8447596]}, "type": "Feature", "properties": {"neighborhood": "Sunset Acres", "encoding": "utf-8", "county": "Lancaster County", "street": "N 27th St", "lng": -96.68204639999999, "quality": "intersection", "city": "Lincoln", "confidence": 9, "state": "NE", "location": "27th & K-Mart , Lincoln, NE", "provider": "google", "method": "geocode", "accuracy": "APPROXIMATE", "status": "OK", "case_no": "B4-044178", "bbox": {"northeast": [40.8461085802915, -96.6806974197085], "southwest": [40.8434106197085, -96.6833953802915]}, "address": "North 27th Street & K-Mart Drive, Lincoln, NE 68504, USA", "lat": 40.8447596, "postal": "68504", "ok": true, "geometry": {"type": "Point", "coordinates": [-96.68204639999999, 40.8447596]}, "country": "US"}, "bbox": {"northeast": [40.8461085802915, -96.6806974197085], "southwest": [40.8434106197085, -96.6833953802915]}}, {"geometry": {"type": "Point", "coordinates": [-96.708581, 40.79922]}, "type": "Feature", "properties": {"neighborhood": "South Salt Creek", "encoding": "utf-8", "county": "Lancaster County", "street": "A St", "lng": -96.708581, "quality": "intersection", "city": "Lincoln", "confidence": 9, "state": "NE", "location": "9TH & A, Lincoln, NE", "provider": "google", "method": "geocode", "accuracy": "APPROXIMATE", "status": "OK", "case_no": "B5-026022", "bbox": {"northeast": [40.8005689802915, -96.7072320197085], "southwest": [40.7978710197085, -96.7099299802915]}, "address": "A Street & South 9th Street, Lincoln, NE 68502, USA", "lat": 40.79922, "postal": "68502", "ok": true, "geometry": {"type": "Point", "coordinates": [-96.708581, 40.79922]}, "country": "US"}, "bbox": {"northeast": [40.8005689802915, -96.7072320197085], "southwest": [40.7978710197085, -96.7099299802915]}}, {"geometry": {"type": "Point", "coordinates": [-96.670203, 40.820786]}, "type": "Feature", "properties": {"neighborhood": "Hartley", "encoding": "utf-8", "county": "Lancaster County", "street": "Vine St", "lng": -96.670203, "quality": "intersection", "city": "Lincoln", "confidence": 9, "state": "NE", "location": "35th & vine, Lincoln, NE", "provider": "google", "method": "geocode", "accuracy": "APPROXIMATE", "status": "OK", "case_no": "B3-084182", "bbox": {"northeast": [40.82213498029149, -96.6688540197085], "southwest": [40.8194370197085, -96.67155198029151]}, "address": "Vine Street & North 35th Street, Lincoln, NE 68503, USA", "lat": 40.820786, "postal": "68503", "ok": true, "geometry": {"type": "Point", "coordinates": [-96.670203, 40.820786]}, "country": "US"}, "bbox": {"northeast": [40.82213498029149, -96.6688540197085], "southwest": [40.8194370197085, -96.67155198029151]}}, {"geometry": {"type": "Point", "coordinates": [-96.60602560000001, 40.7947984]}, "type": "Feature", "properties": {"status": "OK", "city": "Lincoln", "confidence": 9, "ok": true, "accuracy": "APPROXIMATE", "encoding": "utf-8", "geometry": {"type": "Point", "coordinates": [-96.60602560000001, 40.7947984]}, "country": "US", "address": "South 84th Street & Norval Road, Lincoln, NE 68520, USA", "case_no": "B4-112515", "county": "Lancaster County", "state": "NE", "street": "S 84th St", "location": "84th & Norval Rd, Lincoln, NE", "provider": "google", "lat": 40.7947984, "lng": -96.60602560000001, "postal": "68520", "quality": "intersection", "method": "geocode", "bbox": {"northeast": [40.7961473802915, -96.60467661970851], "southwest": [40.7934494197085, -96.60737458029152]}}, "bbox": {"northeast": [40.7961473802915, -96.60467661970851], "southwest": [40.7934494197085, -96.60737458029152]}}, {"geometry": {"type": "Point", "coordinates": [-96.696732, 40.81582299999999]}, "type": "Feature", "properties": {"neighborhood": "Downtown", "encoding": "utf-8", "county": "Lancaster County", "street": "N 17th St", "lng": -96.696732, "quality": "intersection", "city": "Lincoln", "confidence": 9, "state": "NE", "location": "N 17th & Q Street, Lincoln, NE", "provider": "google", "method": "geocode", "accuracy": "APPROXIMATE", "status": "OK", "case_no": "B3-089468", "bbox": {"northeast": [40.8171719802915, -96.69538301970849], "southwest": [40.8144740197085, -96.6980809802915]}, "address": "University of Nebraska-Lincoln, North 17th Street & Q Street, Lincoln, NE 68508, USA", "lat": 40.81582299999999, "postal": "68508", "ok": true, "geometry": {"type": "Point", "coordinates": [-96.696732, 40.81582299999999]}, "country": "US"}, "bbox": {"northeast": [40.8171719802915, -96.69538301970849], "southwest": [40.8144740197085, -96.6980809802915]}}, {"geometry": {"type": "Point", "coordinates": [-96.682352, 40.798943]}, "type": "Feature", "properties": {"neighborhood": "Near South", "encoding": "utf-8", "county": "Lancaster County", "street": "A St", "lng": -96.682352, "quality": "intersection", "city": "Lincoln", "confidence": 9, "state": "NE", "location": "27th & A, Lincoln, NE", "provider": "google", "method": "geocode", "accuracy": "APPROXIMATE", "status": "OK", "case_no": "B4-073357", "bbox": {"northeast": [40.8002919802915, -96.68100301970848], "southwest": [40.7975940197085, -96.68370098029149]}, "address": "A Street & South 27th Street, Lincoln, NE 68502, USA", "lat": 40.798943, "postal": "68502", "ok": true, "geometry": {"type": "Point", "coordinates": [-96.682352, 40.798943]}, "country": "US"}, "bbox": {"northeast": [40.8002919802915, -96.68100301970848], "southwest": [40.7975940197085, -96.68370098029149]}}, {"geometry": {"type": "Point", "coordinates": [-96.67715779999999, 40.7554406]}, "type": "Feature", "properties": {"encoding": "utf-8", "county": "Lancaster County", "street": "Old Cheney Rd", "lng": -96.67715779999999, "quality": "street_address", "city": "Lincoln", "confidence": 9, "state": "NE", "location": "3050 old cheney, Lincoln, NE", "provider": "google", "housenumber": "3050", "method": "geocode", "accuracy": "RANGE_INTERPOLATED", "status": "OK", "case_no": "B4-050934", "bbox": {"northeast": [40.7567825802915, -96.67580891970849], "southwest": [40.75408461970851, -96.6785068802915]}, "address": "3050 Old Cheney Road, Lincoln, NE 68516, USA", "lat": 40.7554406, "postal": "68516", "ok": true, "geometry": {"type": "Point", "coordinates": [-96.67715779999999, 40.7554406]}, "country": "US"}, "bbox": {"northeast": [40.7567825802915, -96.67580891970849], "southwest": [40.75408461970851, -96.6785068802915]}}, {"geometry": {"type": "Point", "coordinates": [-96.68272379999999, 40.8225683]}, "type": "Feature", "properties": {"neighborhood": "Hawley", "encoding": "utf-8", "county": "Lancaster County", "street": "W St", "lng": -96.68272379999999, "quality": "street_address", "city": "Lincoln", "confidence": 9, "state": "NE", "location": "2650 W, Lincoln, NE", "provider": "google", "housenumber": "2650", "method": "geocode", "accuracy": "RANGE_INTERPOLATED", "status": "OK", "case_no": "B3-119459", "bbox": {"northeast": [40.8239102802915, -96.68137491970849], "southwest": [40.8212123197085, -96.68407288029151]}, "address": "2650 W Street, Lincoln, NE 68503, USA", "lat": 40.8225683, "postal": "68503", "ok": true, "geometry": {"type": "Point", "coordinates": [-96.68272379999999, 40.8225683]}, "country": "US"}, "bbox": {"northeast": [40.8239102802915, -96.68137491970849], "southwest": [40.8212123197085, -96.68407288029151]}}, {"geometry": {"type": "Point", "coordinates": [-96.656109, 40.813534]}, "type": "Feature", "properties": {"neighborhood": "Hartley", "encoding": "utf-8", "county": "Lancaster County", "street": "E O St", "lng": -96.656109, "quality": "intersection", "city": "Lincoln", "confidence": 9, "state": "NE", "location": "N 46 & East O St, Lincoln, NE", "provider": "google", "method": "geocode", "accuracy": "APPROXIMATE", "status": "OK", "case_no": "B3-046493", "bbox": {"northeast": [40.8148829802915, -96.65476001970849], "southwest": [40.8121850197085, -96.65745798029151]}, "address": "East O Street & North 46th Street, Lincoln, NE 68503, USA", "lat": 40.813534, "postal": "68503", "ok": true, "geometry": {"type": "Point", "coordinates": [-96.656109, 40.813534]}, "country": "US"}, "bbox": {"northeast": [40.8148829802915, -96.65476001970849], "southwest": [40.8121850197085, -96.65745798029151]}}, {"geometry": {"type": "Point", "coordinates": [-96.6393576, 40.8325165]}, "type": "Feature", "properties": {"neighborhood": "University Place", "encoding": "utf-8", "county": "Lancaster County", "street": "N 60th St", "lng": -96.6393576, "quality": "intersection", "city": "Lincoln", "confidence": 9, "state": "NE", "location": "N 60TH ST & LEXINGTON, Lincoln, NE", "provider": "google", "method": "geocode", "accuracy": "APPROXIMATE", "status": "OK", "case_no": "B4-094535", "bbox": {"northeast": [40.8338654802915, -96.63800861970849], "southwest": [40.8311675197085, -96.6407065802915]}, "address": "North 60th Street & Lexington Avenue, Lincoln, NE 68505, USA", "lat": 40.8325165, "postal": "68505", "ok": true, "geometry": {"type": "Point", "coordinates": [-96.6393576, 40.8325165]}, "country": "US"}, "bbox": {"northeast": [40.8338654802915, -96.63800861970849], "southwest": [40.8311675197085, -96.6407065802915]}}, {"geometry": {"type": "Point", "coordinates": [-96.7085103, 40.8081065]}, "type": "Feature", "properties": {"neighborhood": "South Salt Creek", "encoding": "utf-8", "county": "Lancaster County", "street": "S 9th St", "lng": -96.7085103, "quality": "intersection", "city": "Lincoln", "confidence": 9, "state": "NE", "location": "9th & J St., Lincoln, NE", "provider": "google", "method": "geocode", "accuracy": "APPROXIMATE", "status": "OK", "case_no": "B4-054621", "bbox": {"northeast": [40.8094554802915, -96.7071613197085], "southwest": [40.8067575197085, -96.70985928029151]}, "address": "South 9th Street & J Street, Lincoln, NE 68508, USA", "lat": 40.8081065, "postal": "68508", "ok": true, "geometry": {"type": "Point", "coordinates": [-96.7085103, 40.8081065]}, "country": "US"}, "bbox": {"northeast": [40.8094554802915, -96.7071613197085], "southwest": [40.8067575197085, -96.70985928029151]}}, {"geometry": {"type": "Point", "coordinates": [-96.65366949999999, 40.8206976]}, "type": "Feature", "properties": {"neighborhood": "Hartley", "encoding": "utf-8", "county": "Lancaster County", "street": "Vine St", "lng": -96.65366949999999, "quality": "intersection", "city": "Lincoln", "confidence": 9, "state": "NE", "location": "N. 48th St. & Vine St., Lincoln, NE", "provider": "google", "method": "geocode", "accuracy": "APPROXIMATE", "status": "OK", "case_no": "B3-060446", "bbox": {"northeast": [40.82204658029149, -96.6523205197085], "southwest": [40.81934861970849, -96.6550184802915]}, "address": "Vine Street & North 48th Street, Lincoln, NE 68504, USA", "lat": 40.8206976, "postal": "68504", "ok": true, "geometry": {"type": "Point", "coordinates": [-96.65366949999999, 40.8206976]}, "country": "US"}, "bbox": {"northeast": [40.82204658029149, -96.6523205197085], "southwest": [40.81934861970849, -96.6550184802915]}}, {"geometry": {"type": "Point", "coordinates": [-96.60620899999999, 40.7612549]}, "type": "Feature", "properties": {"status": "OK", "city": "Lincoln", "confidence": 9, "ok": true, "accuracy": "APPROXIMATE", "encoding": "utf-8", "geometry": {"type": "Point", "coordinates": [-96.60620899999999, 40.7612549]},