{"type": "FeatureCollection", "features": [{"geometry": {"type": "Point", "coordinates": [-96.605914, 40.835295]}, "type": "Feature", "properties": {"city": "Lincoln", "country": "US", "case_no": "B3-040261", "county": "Lancaster County", "state": "NE", "street": "Leighton Ave", "address": "Leighton Avenue & North 83rd Street, Lincoln, NE 68507, USA", "postal": "68507"}, "bbox": {"northeast": [40.83663798029149, -96.6072580197085], "southwest": [40.8339400197085, -96.6099559802915]}}, {"geometry": {"type": "Point", "coordinates": [-96.664999, 40.791634]}, "type": "Feature", "properties": {"city": "Lincoln", "neighborhood": "40th&A", "country": "US", "case_no": "B4-089529", "county": "Lancaster County", "state": "NE", "street": "South St", "address": "South Street & Normal Boulevard, Lincoln, NE 68506, USA", "postal": "68506"}, "bbox": {"northeast": [40.79298058029149, -96.6635969197085], "southwest": [40.79028261970849, -96.6662948802915]}}, {"geometry": {"type": "Point", "coordinates": [-96.676107, 40.820742]}, "type": "Feature", "properties": {"city": "Lincoln", "neighborhood": "Hartley", "country": "US", "case_no": "B3-039635", "county": "Lancaster County", "state": "NE", "street": "Vine St", "address": "Vine Street & North 31st Street, Lincoln, NE 68503, USA", "postal": "68503"}, "bbox": {"northeast": [40.8220936802915, -96.6747383197085], "southwest": [40.8193957197085, -96.6774362802915]}}, {"geometry": {"type": "Point", "coordinates": [-96.698181, 40.815831]}, "type": "Feature", "properties": {"city": "Lincoln", "neighborhood": "Downtown", "country": "US", "case_no": "B4-080902", "county": "Lancaster County", "state": "NE", "street": "N 16th St", "address": "University of Nebraska-Lincoln, North 16th Street & Q Street, Lincoln, NE 68508, USA", "postal": "68508"}, "bbox": {"northeast": [40.8171799802915, -96.69683201970851], "southwest": [40.8144820197085, -96.69952998029152]}}, {"geometry": {"type": "Point", "coordinates": [-96.707344, 40.817406]}, "type": "Feature", "properties": {"city": "Lincoln", "neighborhood": "Downtown", "country": "US", "case_no": "B4-054707", "county": "Lancaster County", "state": "NE", "street": "N 10th St", "address": "North 10th Street & Q Street, Lincoln, NE 68508, USA", "postal": "68508"}, "bbox": {"northeast": [40.8172089802915, -96.70563601970848], "southwest": [40.8145110197085, -96.7083339802915]}}, {"geometry": {"type": "Point", "coordinates": [-96.694048, 40.813559]}, "type": "Feature", "properties": {"city": "Lincoln", "neighborhood": "Downtown", "country": "US", "case_no": "B4-067796", "county": "Lancaster County", "state": "NE", "street": "E O St", "address": "East O Street & South Antelope Valley Parkway, Lincoln, NE 68508, USA", "postal": "68508"}, "bbox": {"northeast": [40.81493298029149, -96.6925100197085], "southwest": [40.8122350197085, -96.6952079802915]}}, {"geometry": {"type": "Point", "coordinates": [-96.67289, 40.798923]}, "type": "Feature", "properties": {"city": "Lincoln", "neighborhood": "Woods Park", "country": "US", "case_no": "B3-042103", "county": "Lancaster County", "state": "NE", "street": "A St", "address": "A Street & South 33rd Street, Lincoln, NE 68510, USA", "postal": "68510"}, "bbox": {"northeast": [40.8002899802915, -96.6715010197085], "southwest": [40.7975920197085, -96.67419898029151]}}, {"geometry": {"type": "Point", "coordinates": [-96.682333, 40.824368]}, "type": "Feature", "properties": {"city": "Lincoln", "neighborhood": "Clinton", "country": "US", "case_no": "B3-049103", "county": "Lancaster County", "state": "NE", "street": "N 27th St", "address": "North 27th Street & Y Street, Lincoln, NE 68503, USA", "postal": "68503"}, "bbox": {"northeast": [40.82571608029151, -96.68097571970848], "southwest": [40.82301811970851, -96.68367368029149]}}, {"geometry": {"type": "Point", "coordinates": [-96.7445884, 40.8137952]}, "type": "Feature", "properties": {"city": "Lincoln", "country": "US", "case_no": "B4-051524", "county": "Lancaster County", "state": "NE", "street": "W O St", "address": "West O Street & Northwest 16th Street, Lincoln, NE 68528, USA", "postal": "68528"}, "bbox": {"northeast": [40.8151441802915, -96.7432394197085], "southwest": [40.81244621970851, -96.74593738029151]}}, {"geometry": {"type": "Point", "coordinates": [-96.670195, 40.820765]}, "type": "Feature", "properties": {"city": "Lincoln", "neighborhood": "Hartley", "country": "US", "case_no": "B3-077318", "county": "Lancaster County", "state": "NE", "street": "Vine St", "address": "Vine Street & North 35th Street, Lincoln, NE 68503, USA", "postal": "68503"}, "bbox": {"northeast": [40.82213498029149, -96.6688540197085], "southwest": [40.8194370197085, -96.67155198029151]}}, {"geometry": {"type": "Point", "coordinates": [-96.682286, 40.817112]}, "type": "Feature", "properties": {"city": "Lincoln", "neighborhood": "Hawley", "country": "US", "case_no": "B4-083787", "county": "Lancaster County", "state": "NE", "street": "N 27th St", "address": "North 27th Street & R Street, Lincoln, NE 68503, USA", "postal": "68503"}, "bbox": {"northeast": [40.81844298029149, -96.6810410197085], "southwest": [40.8157450197085, -96.68373898029151]}}, {"geometry": {"type": "Point", "coordinates": [-96.68208, 40.85708]}, "type": "Feature", "properties": {"city": "Lincoln", "neighborhood": "Sunset Acres", "country": "US", "case_no": "B4-097745", "county": "Lancaster County", "state": "NE", "street": "Superior St", "address": "Superior Street & North 27th Street, Lincoln, NE 68504, USA", "postal": "68504"}, "bbox": {"northeast": [40.85834578029149, -96.68059191970849], "southwest": [40.85564781970849, -96.6832898802915]}}, {"geometry": {"type": "Point", "coordinates": [-96.606158, 40.769711]}, "type": "Feature", "properties": {"city": "Lincoln", "neighborhood": "Fox Hollow 2nd Addition", "country": "US", "case_no": "B4-035603", "county": "Lancaster County", "state": "NE", "street": "S 84th St", "address": "South 84th Street & Pioneers Boulevard, Lincoln, NE 68506, USA", "postal": "68506"}, "bbox": {"northeast": [40.77109618029149, -96.6048746197085], "southwest": [40.76839821970849, -96.6075725802915]}}, {"geometry": {"type": "Point", "coordinates": [-96.696726, 40.791708]}, "type": "Feature", "properties": {"city": "Lincoln", "neighborhood": "Irvingdale", "country": "US", "case_no": "B4-107448", "county": "Lancaster County", "state": "NE", "street": "South St", "address": "South Street & South 17th Street, Lincoln, NE 68502, USA", "postal": "68502"}, "bbox": {"northeast": [40.79302358029151, -96.69539381970849], "southwest": [40.79032561970851, -96.69809178029149]}}, {"geometry": {"type": "Point", "coordinates": [-96.672634, 40.842632]}, "type": "Feature", "properties": {"city": "Lincoln", "neighborhood": "Sunset Acres", "country": "US", "case_no": "B3-065731", "county": "Lancaster County", "state": "NE", "street": "Cornhusker Hwy", "address": "Cornhusker Highway & North 33rd Street, Lincoln, NE 68504, USA", "postal": "68504"}, "bbox": {"northeast": [40.84399028029149, -96.67146711970848], "southwest": [40.84129231970849, -96.6741650802915]}}, {"geometry": {"type": "Point", "coordinates": [-96.612392, 40.803691]}, "type": "Feature", "properties": {"city": "Lincoln", "country": "US", "case_no": "B3-063805", "county": "Lancaster County", "state": "NE", "street": "S Hazelwood Dr", "address": "South Hazelwood Drive & Englewood Drive, Lincoln, NE 68510, USA", "postal": "68510"}, "bbox": {"northeast": [40.8061020802915, -96.6140465197085], "southwest": [40.8034041197085, -96.6167444802915]}}, {"geometry": {"type": "Point", "coordinates": [-96.644087, 40.813405]}, "type": "Feature", "properties": {"city": "Lincoln", "neighborhood": "Culler", "country": "US", "case_no": "B4-089583", "county": "Lancaster County", "state": "NE", "street": "E O St", "address": "East O Street & South 56th Street, Lincoln, NE 68504, USA", "postal": "68504"}, "bbox": {"northeast": [40.8148395802915, -96.64278991970849], "southwest": [40.81214161970851, -96.64548788029151]}}, {"geometry": {"type": "Point", "coordinates": [-96.67956, 40.842503]}, "type": "Feature", "properties": {"city": "Lincoln", "country": "US", "case_no": "B4-085278", "county": "Lancaster County", "state": "NE", "street": "Cornhusker Hwy", "address": "Cornhusker Highway & State Fair Park Drive, Lincoln, NE 68504, USA", "postal": "68504"}, "bbox": {"northeast": [40.84384748029149, -96.67814821970852], "southwest": [40.8411495197085, -96.68084618029152]}}, {"geometry": {"type": "Point", "coordinates": [-96.64425469999999, 40.7834499]}, "type": "Feature", "properties": {"city": "Lincoln", "country": "US", "case_no": "B4-055169", "county": "Lancaster County", "state": "NE", "street": "Van Dorn St", "address": "Van Dorn Street & South 56th Street, Lincoln, NE 68506, USA", "postal": "68506"}, "bbox": {"northeast": [40.7847988802915, -96.6429057197085], "southwest": [40.7821009197085, -96.6456036802915]}}, {"geometry": {"type": "Point", "coordinates": [-96.682352, 40.798943]}, "type": "Feature", "properties": {"city": "Lincoln", "neighborhood": "Near South", "country": "US", "case_no": "B5-019431", "county": "Lancaster County", "state": "NE", "street": "A St", "address": "A Street & South 27th Street, Lincoln, NE 68502, USA", "postal": "68502"}, "bbox": {"northeast": [40.8002919802915, -96.68100301970848], "southwest": [40.7975940197085, -96.68370098029149]}}, {"geometry": {"type": "Point", "coordinates": [-96.630429, 40.835209]}, "type": "Feature", "properties": {"city": "Lincoln", "neighborhood": "Bethany", "country": "US", "case_no": "B3-103352", "county": "Lancaster County", "state": "NE", "street": "Leighton Ave", "address": "Leighton Avenue & North Cotner Boulevard, Lincoln, NE 68507, USA", "postal": "68507"}, "bbox": {"northeast": [40.83655598029149, -96.62908751970849], "southwest": [40.83385801970849, -96.63178548029151]}}, {"geometry": {"type": "Point", "coordinates": [-96.664999, 40.791634]}, "type": "Feature", "properties": {"city": "Lincoln", "neighborhood": "40th&A", "country": "US", "case_no": "B3-104460", "county": "Lancaster County", "state": "NE", "street": "South St", "address": "South Street & Normal Boulevard, Lincoln, NE 68506, USA", "postal": "68506"}, "bbox": {"northeast": [40.79298058029149, -96.6635969197085], "southwest": [40.79028261970849, -96.6662948802915]}}, {"geometry": {"type": "Point", "coordinates": [-96.6858352, 40.8571903]}, "type": "Feature", "properties": {"city": "Lincoln", "neighborhood": "Landon's", "country": "US", "case_no": "B5-038870", "county": "Lancaster County", "state": "NE", "street": "Superior St", "address": "Superior Street & North 24th Street, Lincoln, NE 68521, USA", "postal": "68521"}, "bbox": {"northeast": [40.8585392802915, -96.6844862197085], "southwest": [40.8558413197085, -96.68718418029151]}}, {"geometry": {"type": "Point", "coordinates": [-96.682442, 40.808018]}, "type": "Feature", "properties": {"city": "Lincoln", "neighborhood": "Woods Park", "country": "US", "case_no": "B3-069383", "county": "Lancaster County", "state": "NE", "street": "S 27th St", "address": "South 27th Street & J Street, Lincoln, NE 68510, USA", "postal": "68510"}, "bbox": {"northeast": [40.80937728029149, -96.68108751970848], "southwest": [40.80667931970849, -96.6837854802915]}}, {"geometry": {"type": "Point", "coordinates": [-96.670465, 40.798937]}, "type": "Feature", "properties": {"city": "Lincoln", "neighborhood": "40th&A", "country": "US", "case_no": "B4-061463", "county": "Lancaster County", "state": "NE", "street": "A St", "address": "A Street & South 35th Street, Lincoln, NE 68510, USA", "postal": "68510"}, "bbox": {"northeast": [40.8002899802915, -96.6690950197085], "southwest": [40.7975920197085, -96.6717929802915]}}, {"geometry": {"type": "Point", "coordinates": [-96.692619, 40.821075]}, "type": "Feature", "properties": {"city": "Lincoln", "country": "US", "case_no": "B3-096911", "county": "Lancaster County", "state": "NE", "street": "N Antelope Valley Pkwy", "address": "North Antelope Valley Parkway & Vine Street, Lincoln, NE 68503, USA", "postal": "68503"}, "bbox": {"northeast": [40.8223235802915, -96.69120911970849], "southwest": [40.8196256197085, -96.69390708029151]}}, {"geometry": {"type": "Point", "coordinates": [-96.708524, 40.813621]}, "type": "Feature", "properties": {"city": "Lincoln", "neighborhood": "Downtown", "country": "US", "case_no": "B4-032910", "county": "Lancaster County", "state": "NE", "street": "E O St", "address": "East O Street & South 9th Street, Lincoln, NE 68508, USA", "postal": "68508"}, "bbox": {"northeast": [40.8149848802915, -96.70713011970848], "southwest": [40.81228691970851, -96.7098280802915]}}, {"geometry": {"type": "Point", "coordinates": [-96.682411, 40.802506]}, "type": "Feature", "properties": {"city": "Lincoln", "neighborhood": "Woods Park", "country": "US", "case_no": "B4-081988", "county": "Lancaster County", "state": "NE", "street": "S 27th St", "address": "South 27th Street & Capitol Parkway, Lincoln, NE 68510, USA", "postal": "68510"}, "bbox": {"northeast": [40.80396598029149, -96.68110061970852], "southwest": [40.8012680197085, -96.68379858029152]}}, {"geometry": {"type": "Point", "coordinates": [-96.656813, 40.769778]}, "type": "Feature", "properties": {"city": "Lincoln", "country": "US", "case_no": "B5-026900", "county": "Lancaster County", "state": "NE", "street": "Pioneers Blvd", "address": "Pioneers Boulevard & South 46th Street, Lincoln, NE 68516, USA", "postal": "68516"}, "bbox": {"northeast": [40.7711269802915, -96.65546401970849], "southwest": [40.7684290197085, -96.65816198029151]}}, {"geometry": {"type": "Point", "coordinates": [-96.701229, 40.802486]}, "type": "Feature", "properties": {"city": "Lincoln", "neighborhood": "Near South", "country": "US", "case_no": "B3-064051", "county": "Lancaster County", "state": "NE", "street": "S 14th St", "address": "South 14th Street & D Street, Lincoln, NE 68502, USA", "postal": "68502"}, "bbox": {"northeast": [40.8038659802915, -96.69987701970848], "southwest": [40.80116801970851, -96.7025749802915]}}, {"geometry": {"type": "Point", "coordinates": [-96.67289, 40.798923]}, "type": "Feature", "properties": {"city": "Lincoln", "neighborhood": "Woods Park", "country": "US", "case_no": "B3-079399", "county": "Lancaster County", "state": "NE", "street": "A St", "address": "A Street & Chautauqua Avenue, Lincoln, NE 68510, USA", "postal": "68510"}, "bbox": {"northeast": [40.8002899802915, -96.67269151970848], "southwest": [40.7975920197085, -96.6753894802915]}}, {"geometry": {"type": "Point", "coordinates": [-96.6820352, 40.8424934]}, "type": "Feature", "properties": {"city": "Lincoln", "country": "US", "case_no": "B4-055506", "county": "Lancaster County", "state": "NE", "street": "Cornhusker Hwy", "address": "Cornhusker Highway & North 27th Street, Lincoln, NE 68504, USA", "postal": "68504"}, "bbox": {"northeast": [40.84384238029149, -96.6806862197085], "southwest": [40.84114441970849, -96.68338418029151]}}, {"geometry": {"type": "Point", "coordinates": [-96.688044, 40.739468]}, "type": "Feature", "properties": {"city": "Lincoln", "country": "US", "case_no": "B4-002394", "county": "Lancaster County", "state": "NE", "street": "Pine Lake Rd", "address": "Pine Lake Road & Ridge Road, Lincoln, NE 68512, USA", "postal": "68512"}, "bbox": {"northeast": [40.7408644802915, -96.68670211970849], "southwest": [40.7381665197085, -96.68940008029149]}}, {"geometry": {"type": "Point", "coordinates": [-96.6820352, 40.8424934]}, "type": "Feature", "properties": {"city": "Lincoln", "country": "US", "case_no": "B3-060171", "county": "Lancaster County", "state": "NE", "street": "Cornhusker Hwy", "address": "Cornhusker Highway & North 27th Street, Lincoln, NE 68504, USA", "postal": "68504"}, "bbox": {"northeast": [40.84384238029149, -96.6806862197085], "southwest": [40.84114441970849, -96.68338418029151]}}, {"geometry": {"type": "Point", "coordinates": [-96.682252, 40.826388]}, "type": "Feature", "properties": {"city": "Lincoln", "neighborhood": "Clinton", "country": "US", "case_no": "B3-063528", "county": "Lancaster County", "state": "NE", "street": "N 27th St", "address": "1300 North 27th Street, Lincoln, NE 68503, USA", "postal": "68503", "housenumber": "1300"}, "bbox": {"northeast": [40.8277829802915, -96.68050791970849], "southwest": [40.8250850197085, -96.6832058802915]}}, {"geometry": {"type": "Point", "coordinates": [-96.676304, 40.813534]}, "type": "Feature", "properties": {"city": "Lincoln", "neighborhood": "Woods Park", "country": "US", "case_no": "B4-077544", "county": "Lancaster County", "state": "NE", "street": "E O St", "address": "East O Street & North 31st Street, Lincoln, NE 68510, USA", "postal": "68510"}, "bbox": {"northeast": [40.8148829802915, -96.6749550197085], "southwest": [40.8121850197085, -96.67765298029151]}}, {"geometry": {"type": "Point", "coordinates": [-96.661613, 40.7519728]}, "type": "Feature", "properties": {"city": "Lincoln", "country": "US", "case_no": "B4-101309", "county": "Lancaster County", "state": "NE", "street": "Duxhall Dr", "address": "Duxhall Drive & South 42nd Street, Lincoln, NE 68516, USA", "postal": "68516"}, "bbox": {"northeast": [40.75332178029149, -96.6602640197085], "southwest": [40.7506238197085, -96.66296198029151]}}, {"geometry": {"type": "Point", "coordinates": [-96.65378, 40.798917]}, "type": "Feature", "properties": {"city": "Lincoln", "country": "US", "case_no": "B4-072918", "county": "Lancaster County", "state": "NE", "street": "A St", "address": "A Street & South 48th Street, Lincoln, NE 68510, USA", "postal": "68510"}, "bbox": {"northeast": [40.8002809802915, -96.65231701970849], "southwest": [40.7975830197085, -96.6550149802915]}}, {"geometry": {"type": "Point", "coordinates": [-96.606016, 40.820726]}, "type": "Feature", "properties": {"city": "Lincoln", "neighborhood": "Meadowlane", "country": "US", "case_no": "B4-063856", "county": "Lancaster County", "state": "NE", "street": "N 84th St", "address": "North 84th Street & Vine Street, Lincoln, NE 68505, USA", "postal": "68505"}, "bbox": {"northeast": [40.8220584802915, -96.6045764197085], "southwest": [40.8193605197085, -96.6072743802915]}}, {"geometry": {"type": "Point", "coordinates": [-96.682384, 40.820746]}, "type": "Feature", "properties": {"city": "Lincoln", "neighborhood": "Hawley", "country": "US", "case_no": "B4-101521", "county": "Lancaster County", "state": "NE", "street": "N 27th St", "address": "North 27th Street & Vine Street, Lincoln, NE 68503, USA", "postal": "68503"}, "bbox": {"northeast": [40.82214198029151, -96.68088901970849], "southwest": [40.81944401970851, -96.68358698029151]}}, {"geometry": {"type": "Point", "coordinates": [-96.682411, 40.802506]}, "type": "Feature", "properties": {"city": "Lincoln", "neighborhood": "Near South", "country": "US", "case_no": "B4-018717", "county": "Lancaster County", "state": "NE", "street": "S 27th St", "address": "South 27th Street & C Street, Lincoln, NE 68502, USA", "postal": "68502"}, "bbox": {"northeast": [40.8027689802915, -96.68110601970848], "southwest": [40.8000710197085, -96.6838039802915]}}, {"geometry": {"type": "Point", "coordinates": [-96.69531500000001, 40.810269]}, "type": "Feature", "properties": {"city": "Lincoln", "neighborhood": "Downtown", "country": "US", "case_no": "B4-032928", "county": "Lancaster County", "state": "NE", "street": "L St", "address": "L Street & South 18th Street, Lincoln, NE 68508, USA", "postal": "68508"}, "bbox": {"northeast": [40.8116179802915, -96.69396601970851], "southwest": [40.8089200197085, -96.69666398029152]}}, {"geometry": {"type": "Point", "coordinates": [-96.6965231, 40.8233827]}, "type": "Feature", "properties": {"city": "Lincoln", "country": "US", "case_no": "B5-023397", "county": "Lancaster County", "state": "NE", "street": "N 17th St", "address": "University of Nebraska-Lincoln, University of Nebraska - Lincoln: City Campus, North 17th Street & X Street, Lincoln, NE 68508, USA", "postal": "68508"}, "bbox": {"northeast": [40.8247316802915, -96.69517411970848], "southwest": [40.8220337197085, -96.6978720802915]}}, {"geometry": {"type": "Point", "coordinates": [-96.696811, 40.802466]}, "type": "Feature", "properties": {"city": "Lincoln", "neighborhood": "Near South", "country": "US", "case_no": "B4-088430", "county": "Lancaster County", "state": "NE", "street": "S 17th St", "address": "South 17th Street & D Street, Lincoln, NE 68502, USA", "postal": "68502"}, "bbox": {"northeast": [40.8038529802915, -96.69546501970848], "southwest": [40.8011550197085, -96.6981629802915]}}, {"geometry": {"type": "Point", "coordinates": [-96.682384, 40.820746]}, "type": "Feature", "properties": {"city": "Lincoln", "neighborhood": "Hawley", "country": "US", "case_no": "B4-089553", "county": "Lancaster County", "state": "NE", "street": "N 27th St", "address": "North 27th Street & Vine Street, Lincoln, NE 68503, USA", "postal": "68503"}, "bbox": {"northeast": [40.82214198029151, -96.68088901970849], "southwest": [40.81944401970851, -96.68358698029151]}}, {"geometry": {"type": "Point", "coordinates": [-96.6836573, 40.8388911]}, "type": "Feature", "properties": {"city": "Lincoln", "country": "US", "case_no": "B4-057275", "county": "Lancaster County", "state": "NE", "street": "Theresa St", "address": "2545 Theresa Street, Lincoln, NE 68521, USA", "postal": "68521", "housenumber": "2545"}, "bbox": {"northeast": [40.8402400802915, -96.68230831970848], "southwest": [40.8375421197085, -96.6850062802915]}}, {"geometry": {"type": "Point", "coordinates": [-96.67289, 40.798923]}, "type": "Feature", "properties": {"city": "Lincoln", "neighborhood": "Woods Park", "country": "US", "case_no": "B3-103944", "county": "Lancaster County", "state": "NE", "street": "A St", "address": "A Street & South 33rd Street, Lincoln, NE 68510, USA", "postal": "68510"}, "bbox": {"northeast": [40.8002899802915, -96.6715010197085], "southwest": [40.7975920197085, -96.67419898029151]}}, {"geometry": {"type": "Point", "coordinates": [-96.663348, 40.813444]}, "type": "Feature", "properties": {"city": "Lincoln", "country": "US", "case_no": "B4-054751", "county": "Lancaster County", "state": "NE", "street": "E O St", "address": "East O Street & South 40th Street, Lincoln, NE 68503, USA", "postal": "68503"}, "bbox": {"northeast": [40.8148839802915, -96.6619437197085], "southwest": [40.81218601970851, -96.66464168029151]}}, {"geometry": {"type": "Point", "coordinates": [-96.69531500000001, 40.810269]}, "type": "Feature", "properties": {"city": "Lincoln", "neighborhood": "Downtown", "country": "US", "case_no": "B5-038645", "county": "Lancaster County", "state": "NE", "street": "L St", "address": "L Street & South 18th Street, Lincoln, NE 68508, USA", "postal": "68508"}, "bbox": {"northeast": [40.8116179802915, -96.69396601970851], "southwest": [40.8089200197085, -96.69666398029152]}}, {"geometry": {"type": "Point", "coordinates": [-96.627768, 40.836222]}, "type": "Feature", "properties": {"city": "Lincoln", "neighborhood": "Bethany", "country": "US", "case_no": "B4-077259", "county": "Lancaster County", "state": "NE", "street": "Walker Ave", "address": "Walker Avenue & North 68th Street, Lincoln, NE 68507, USA", "postal": "68507"}, "bbox": {"northeast": [40.8375959802915, -96.62638701970849], "southwest": [40.8348980197085, -96.62908498029151]}}, {"geometry": {"type": "Point", "coordinates": [-96.679367, 40.813446]}, "type": "Feature", "properties": {"city": "Lincoln", "neighborhood": "Woods Park", "country": "US", "case_no": "B4-077235", "county": "Lancaster County", "state": "NE", "street": "E O St", "address": "East O Street & North 29th Street, Lincoln, NE 68503, USA", "postal": "68503"}, "bbox": {"northeast": [40.81488418029149, -96.67814311970848], "southwest": [40.8121862197085, -96.6808410802915]}}, {"geometry": {"type": "Point", "coordinates": [-96.712311, 40.851141]}, "type": "Feature", "properties": {"city": "Lincoln", "neighborhood": "Belmont", "country": "US", "case_no": "B4-070436", "county": "Lancaster County", "state": "NE", "street": "Superior St", "address": "550 Superior Street, Lincoln, NE 68521, USA", "postal": "68521", "housenumber": "550"}, "bbox": {"northeast": [40.8567015302915, -96.7112934697085], "southwest": [40.8540035697085, -96.7139914302915]}}, {"geometry": {"type": "Point", "coordinates": [-96.682259, 40.823653]}, "type": "Feature", "properties": {"city": "Lincoln", "neighborhood": "Clinton", "country": "US", "case_no": "B3-049177", "county": "Lancaster County", "state": "NE", "street": "N 27th St", "address": "North 27th Street & Apple Street, Lincoln, NE 68503, USA", "postal": "68503"}, "bbox": {"northeast": [40.82524798029149, -96.68083801970849], "southwest": [40.82255001970849, -96.68353598029151]}}, {"geometry": {"type": "Point", "coordinates": [-96.6933712, 40.7384049]}, "type": "Feature", "properties": {"city": "Lincoln", "country": "US", "case_no": "B4-092182", "county": "Lancaster County", "state": "NE", "street": "Pine Lake Rd", "address": "Pine Lake Road & Hazel Scott Drive, Lincoln, NE 68512, USA", "postal": "68512"}, "bbox": {"northeast": [40.7397538802915, -96.6920222197085], "southwest": [40.7370559197085, -96.69472018029151]}}, {"geometry": {"type": "Point", "coordinates": [-96.686415, 40.805655]}, "type": "Feature", "properties": {"city": "Lincoln", "neighborhood": "Downtown", "country": "US", "case_no": "B3-081979", "county": "Lancaster County", "state": "NE", "street": "Randolph St", "address": "Randolph Street & Capitol Parkway, Lincoln, NE 68510, USA", "postal": "68510"}, "bbox": {"northeast": [40.8070359802915, -96.68496301970849], "southwest": [40.8043380197085, -96.68766098029151]}}, {"geometry": {"type": "Point", "coordinates": [-96.65617, 40.791648]}, "type": "Feature", "properties": {"city": "Lincoln", "country": "US", "case_no": "B3-041362", "county": "Lancaster County", "state": "NE", "street": "S Cotner Blvd", "address": "South Cotner Boulevard & Franklin Street, Lincoln, NE 68506, USA", "postal": "68506"}, "bbox": {"northeast": [40.7948159802915, -96.65475401970849], "southwest": [40.7921180197085, -96.65745198029151]}}, {"geometry": {"type": "Point", "coordinates": [-96.653622, 40.8486406]}, "type": "Feature", "properties": {"city": "Lincoln", "neighborhood": "University Place", "country": "US", "case_no": "B5-032078", "county": "Lancaster County", "state": "NE", "street": "N 48th St", "address": "North 48th Street & Fremont Street, Lincoln, NE 68504, USA", "postal": "68504"}, "bbox": {"northeast": [40.84998958029149, -96.6522730197085], "southwest": [40.84729161970849, -96.65497098029151]}}, {"geometry": {"type": "Point", "coordinates": [-96.7053, 40.813608]}, "type": "Feature", "properties": {"city": "Lincoln", "neighborhood": "Downtown", "country": "US", "case_no": "B4-025657", "county": "Lancaster County", "state": "NE", "street": "E O St", "address": "East O Street & North 11th Street, Lincoln, NE 68508, USA", "postal": "68508"}, "bbox": {"northeast": [40.8149769802915, -96.7041710197085], "southwest": [40.8122790197085, -96.7068689802915]}}, {"geometry": {"type": "Point", "coordinates": [-96.6728869, 40.7687958]}, "type": "Feature", "properties": {"city": "Lincoln", "country": "US", "case_no": "B5-034601", "county": "Lancaster County", "state": "NE", "street": "NE-2", "address": "Nebraska 2 & South 33rd Court, Lincoln, NE 68516, USA", "postal": "68516"}, "bbox": {"northeast": [40.7701447802915, -96.6715379197085], "southwest": [40.7674468197085, -96.6742358802915]}}, {"geometry": {"type": "Point", "coordinates": [-96.701585, 40.783514]}, "type": "Feature", "properties": {"city": "Lincoln", "neighborhood": "Indian Village", "country": "US", "case_no": "B3-040182", "county": "Lancaster County", "state": "NE", "street": "S 14th St", "address": "South 14th Street & Otoe Street, Lincoln, NE 68502, USA", "postal": "68502"}, "bbox": {"northeast": [40.7848711802915, -96.70024031970848], "southwest": [40.7821732197085, -96.7029382802915]}}, {"geometry": {"type": "Point", "coordinates": [-96.605914, 40.835295]}, "type": "Feature", "properties": {"city": "Lincoln", "country": "US", "case_no": "B4-025044", "county": "Lancaster County", "state": "NE", "street": "N 84th St", "address": "North 84th Street & Leighton Avenue, Lincoln, NE 68505, USA", "postal": "68505"}, "bbox": {"northeast": [40.8366462802915, -96.60459471970849], "southwest": [40.8339483197085, -96.6072926802915]}}, {"geometry": {"type": "Point", "coordinates": [-96.625097, 40.779563]}, "type": "Feature", "properties": {"city": "Lincoln", "country": "US", "case_no": "B3-104750", "county": "Lancaster County", "state": "NE", "street": "S 70th St", "address": "3800 South 70th Street, Lincoln, NE 68506, USA", "postal": "68506", "housenumber": "3800"}, "bbox": {"northeast": [40.77513298029151, -96.62256601970851], "southwest": [40.77243501970851, -96.62526398029152]}}, {"geometry": {"type": "Point", "coordinates": [-96.679367, 40.813446]}, "type": "Feature", "properties": {"city": "Lincoln", "neighborhood": "Woods Park", "country": "US", "case_no": "B3-092565", "county": "Lancaster County", "state": "NE", "street": "E O St", "address": "East O Street & North 29th Street, Lincoln, NE 68503, USA", "postal": "68503"}, "bbox": {"northeast": [40.81488418029149, -96.67814311970848], "southwest": [40.8121862197085, -96.6808410802915]}}, {"geometry": {"type": "Point", "coordinates": [-96.664999, 40.791634]}, "type": "Feature", "properties": {"city": "Lincoln", "neighborhood": "40th&A", "country": "US", "case_no": "B4-094698", "county": "Lancaster County", "state": "NE", "street": "South St", "address": "South Street & Normal Boulevard, Lincoln, NE 68506, USA", "postal": "68506"}, "bbox": {"northeast": [40.79298058029149, -96.6635969197085], "southwest": [40.79028261970849, -96.6662948802915]}}, {"geometry": {"type": "Point", "coordinates": [-96.7084891, 40.810318]}, "type": "Feature", "properties": {"city": "Lincoln", "neighborhood": "South Salt Creek", "country": "US", "case_no": "B5-003845", "county": "Lancaster County", "state": "NE", "street": "S 9th St", "address": "South 9th Street & L Street, Lincoln, NE 68508, USA", "postal": "68508"}, "bbox": {"northeast": [40.8116669802915, -96.70714011970848], "southwest": [40.8089690197085, -96.7098380802915]}}, {"geometry": {"type": "Point", "coordinates": [-96.696795, 40.805807]}, "type": "Feature", "properties": {"city": "Lincoln", "neighborhood": "Downtown", "country": "US", "case_no": "B4-054109", "county": "Lancaster County", "state": "NE", "street": "S 17th St", "address": "South 17th Street & G Street, Lincoln, NE 68508, USA", "postal": "68508"}, "bbox": {"northeast": [40.8071699802915, -96.69543901970849], "southwest": [40.80447201970851, -96.69813698029151]}}, {"geometry": {"type": "Point", "coordinates": [-96.701104, 40.81359]}, "type": "Feature", "properties": {"city": "Lincoln", "neighborhood": "Downtown", "country": "US", "case_no": "B4-062148", "county": "Lancaster County", "state": "NE", "street": "E O St", "address": "East O Street & North 14th Street, Lincoln, NE 68508, USA", "postal": "68508"}, "bbox": {"northeast": [40.8149579802915, -96.69981261970848], "southwest": [40.8122600197085, -96.70251058029149]}}, {"geometry": {"type": "Point", "coordinates": [-96.696789, 40.784459]}, "type": "Feature", "properties": {"city": "Lincoln", "neighborhood": "Indian Village", "country": "US", "case_no": "B3-071609", "county": "Lancaster County", "state": "NE", "street": "Van Dorn St", "address": "Van Dorn Street & South 17th Street, Lincoln, NE 68502, USA", "postal": "68502"}, "bbox": {"northeast": [40.78582298029149, -96.69547181970849], "southwest": [40.78312501970849, -96.6981697802915]}}, {"geometry": {"type": "Point", "coordinates": [-96.65371, 40.839287]}, "type": "Feature", "properties": {"city": "Lincoln", "neighborhood": "University Place", "country": "US", "case_no": "B4-099679", "county": "Lancaster County", "state": "NE", "street": "N 48th St", "address": "North 48th Street & Saint Paul Avenue, Lincoln, NE 68504, USA", "postal": "68504"}, "bbox": {"northeast": [40.84065828029149, -96.65228691970849], "southwest": [40.83796031970849, -96.65498488029151]}}, {"geometry": {"type": "Point", "coordinates": [-96.653814, 40.762793]}, "type": "Feature", "properties": {"city": "Lincoln", "country": "US", "case_no": "B4-067912", "county": "Lancaster County", "state": "NE", "street": "S 48th St", "address": "South 48th Street & Claire Avenue, Lincoln, NE 68516, USA", "postal": "68516"}, "bbox": {"northeast": [40.7638799802915, -96.65246091970849], "southwest": [40.7611820197085, -96.65515888029151]}}, {"geometry": {"type": "Point", "coordinates": [-96.705961, 40.84293]}, "type": "Feature", "properties": {"city": "Lincoln", "neighborhood": "Belmont", "country": "US", "case_no": "B3-077193", "county": "Lancaster County", "state": "NE", "street": "N 11th St", "address": "North 11th Street & Butler Avenue, Lincoln, NE 68521, USA", "postal": "68521"}, "bbox": {"northeast": [40.8433569802915, -96.70458001970849], "southwest": [40.8406590197085, -96.70727798029151]}}, {"geometry": {"type": "Point", "coordinates": [-96.68516, 40.820754]}, "type": "Feature", "properties": {"city": "Lincoln", "neighborhood": "Hawley", "country": "US", "case_no": "B4-094429", "county": "Lancaster County", "state": "NE", "street": "Vine St", "address": "Vine Street & North 25th Street, Lincoln, NE 68503, USA", "postal": "68503"}, "bbox": {"northeast": [40.82216458029149, -96.6833127197085], "southwest": [40.8194666197085, -96.6860106802915]}}, {"geometry": {"type": "Point", "coordinates": [-96.653771, 40.830339]}, "type": "Feature", "properties": {"city": "Lincoln", "country": "US", "case_no": "B4-087756", "county": "Lancaster County", "state": "NE", "street": "N 48th St", "address": "University of Nebraska-Lincoln, University of Nebraska-Lincoln: East Campus, North 48th Street & Martin Street, Lincoln, NE 68503, USA", "postal": "68503"}, "bbox": {"northeast": [40.8316919802915, -96.65248501970848], "southwest": [40.8289940197085, -96.6551829802915]}}, {"geometry": {"type": "Point", "coordinates": [-96.653666, 40.798932]}, "type": "Feature", "properties": {"city": "Lincoln", "country": "US", "case_no": "B3-040902", "county": "Lancaster County", "state": "NE", "street": "A St", "address": "A Street & South 48th Street, Lincoln, NE 68510, USA", "postal": "68510"}, "bbox": {"northeast": [40.8002809802915, -96.65231701970849], "southwest": [40.7975830197085, -96.6550149802915]}}, {"geometry": {"type": "Point", "coordinates": [-96.691419, 40.755514]}, "type": "Feature", "properties": {"city": "Lincoln", "country": "US", "case_no": "B4-096832", "county": "Lancaster County", "state": "NE", "street": "Old Cheney Rd", "address": "Old Cheney Road & Tipperary Trail, Lincoln, NE 68512, USA", "postal": "68512"}, "bbox": {"northeast": [40.75687398029149, -96.6900667197085], "southwest": [40.7541760197085, -96.6927646802915]}}, {"geometry": {"type": "Point", "coordinates": [-96.7047327, 40.8575189]}, "type": "Feature", "properties": {"city": "Lincoln", "neighborhood": "Belmont", "country": "US", "case_no": "B5-025692", "county": "Lancaster County", "state": "NE", "street": "Superior St", "address": "Superior Street & Lewis Avenue, Lincoln, NE 68521, USA", "postal": "68521"}, "bbox": {"northeast": [40.8588678802915, -96.7033837197085], "southwest": [40.8561699197085, -96.7060816802915]}}, {"geometry": {"type": "Point", "coordinates": [-96.65839, 40.813455]}, "type": "Feature", "properties": {"city": "Lincoln", "neighborhood": "Hartley", "country": "US", "case_no": "B4-106176", "county": "Lancaster County", "state": "NE", "street": "E O St", "address": "East O Street & North 44th Street, Lincoln, NE 68503, USA", "postal": "68503"}, "bbox": {"northeast": [40.8148899802915, -96.65715101970848], "southwest": [40.8121920197085, -96.6598489802915]}}, {"geometry": {"type": "Point", "coordinates": [-96.705575, 40.804754]}, "type": "Feature", "properties": {"city": "Lincoln", "neighborhood": "Everett", "country": "US", "case_no": "B5-036569", "county": "Lancaster County", "state": "NE", "street": "F St", "address": "F Street & South 11th Street, Lincoln, NE 68508, USA", "postal": "68508"}, "bbox": {"northeast": [40.80610298029149, -96.7042260197085], "southwest": [40.80340501970849, -96.7069239802915]}}, {"geometry": {"type": "Point", "coordinates": [-96.6251975, 40.7783585]}, "type": "Feature", "properties": {"city": "Lincoln", "country": "US", "case_no": "B5-023780", "county": "Lancaster County", "state": "NE", "street": "S 70th St", "address": "South 70th Street & Holmes North Shore Road, Lincoln, NE 68506, USA", "postal": "68506"}, "bbox": {"northeast": [40.7797074802915, -96.62384851970849], "southwest": [40.7770095197085, -96.62654648029151]}}, {"geometry": {"type": "Point", "coordinates": [-96.707181, 40.791835]}, "type": "Feature", "properties": {"city": "Lincoln", "neighborhood": "Irvingdale", "country": "US", "case_no": "B4-080632", "county": "Lancaster County", "state": "NE", "street": "S 10th St", "address": "South 10th Street & South Street, Lincoln, NE 68502, USA", "postal": "68502"}, "bbox": {"northeast": [40.79319798029151, -96.70578921970849], "southwest": [40.79050001970851, -96.7084871802915]}}, {"geometry": {"type": "Point", "coordinates": [-96.704062, 40.815856]}, "type": "Feature", "properties": {"city": "Lincoln", "neighborhood": "Downtown", "country": "US", "case_no": "B3-046104", "county": "Lancaster County", "state": "NE", "street": "Q St", "address": "Q Street & North 12th Street, Lincoln, NE 68508, USA", "postal": "68508"}, "bbox": {"northeast": [40.8171979802915, -96.70267301970848], "southwest": [40.8145000197085, -96.70537098029149]}}, {"geometry": {"type": "Point", "coordinates": [-96.653744, 40.820792]}, "type": "Feature", "properties": {"city": "Lincoln", "neighborhood": "Hartley", "country": "US", "case_no": "B4-090181", "county": "Lancaster County", "state": "NE", "street": "Vine St", "address": "Vine Street & North 48th Street, Lincoln, NE 68504, USA", "postal": "68504"}, "bbox": {"northeast": [40.82204658029149, -96.6523205197085], "southwest": [40.81934861970849, -96.6550184802915]}}, {"geometry": {"type": "Point", "coordinates": [-96.696821, 40.783746]}, "type": "Feature", "properties": {"city": "Lincoln", "neighborhood": "Indian Village", "country": "US", "case_no": "B4-049988", "county": "Lancaster County", "state": "NE", "street": "S 17th St", "address": "South 17th Street & Otoe Street, Lincoln, NE 68502, USA", "postal": "68502"}, "bbox": {"northeast": [40.7849339802915, -96.6954776197085], "southwest": [40.7822360197085, -96.6981755802915]}}, {"geometry": {"type": "Point", "coordinates": [-96.6787805, 40.8207405]}, "type": "Feature", "properties": {"city": "Lincoln", "neighborhood": "Hartley", "country": "US", "case_no": "B5-020294", "county": "Lancaster County", "state": "NE", "street": "Vine St", "address": "Vine Street & North 30th Street, Lincoln, NE 68503, USA", "postal": "68503"}, "bbox": {"northeast": [40.8220894802915, -96.67743151970849], "southwest": [40.8193915197085, -96.68012948029151]}}, {"geometry": {"type": "Point", "coordinates": [-96.682534, 40.777165]}, "type": "Feature", "properties": {"city": "Lincoln", "neighborhood": "Country Club", "country": "US", "case_no": "B3-104457", "county": "Lancaster County", "state": "NE", "street": "S 27th St", "address": "South 27th Street & Calvert Street, Lincoln, NE 68502, USA", "postal": "68502"}, "bbox": {"northeast": [40.7785216802915, -96.68116221970848], "southwest": [40.7758237197085, -96.6838601802915]}}, {"geometry": {"type": "Point", "coordinates": [-96.696811, 40.802466]}, "type": "Feature", "properties": {"city": "Lincoln", "neighborhood": "Near South", "country": "US", "case_no": "B4-103593", "county": "Lancaster County", "state": "NE", "street": "D St", "address": "D Street & South 18th Street, Lincoln, NE 68502, USA", "postal": "68502"}, "bbox": {"northeast": [40.80384798029149, -96.69401801970848], "southwest": [40.80115001970849, -96.6967159802915]}}, {"geometry": {"type": "Point", "coordinates": [-96.66494589999999, 40.7916316]}, "type": "Feature", "properties": {"city": "Lincoln", "neighborhood": "40th&A", "country": "US", "case_no": "B3-119591", "county": "Lancaster County", "state": "NE", "street": "South St", "address": "South Street & Normal Boulevard, Lincoln, NE 68506, USA", "postal": "68506"}, "bbox": {"northeast": [40.79298058029149, -96.6635969197085], "southwest": [40.79028261970849, -96.6662948802915]}}, {"geometry": {"type": "Point", "coordinates": [-96.625064, 40.80608]}, "type": "Feature", "properties": {"city": "Lincoln", "country": "US", "case_no": "B4-072817", "county": "Lancaster County", "state": "NE", "street": "S 70th St", "address": "South 70th Street & South Wedgewood Drive, Lincoln, NE 68510, USA", "postal": "68510"}, "bbox": {"northeast": [40.80744198029149, -96.6237083197085], "southwest": [40.80474401970849, -96.6264062802915]}}, {"geometry": {"type": "Point", "coordinates": [-96.65368, 40.842552]}, "type": "Feature", "properties": {"city": "Lincoln", "neighborhood": "University Place", "country": "US", "case_no": "B3-059009", "county": "Lancaster County", "state": "NE", "street": "Adams St", "address": "Adams Street & North 49th Street, Lincoln, NE 68504, USA", "postal": "68504"}, "bbox": {"northeast": [40.84390648029149, -96.65100051970849], "southwest": [40.84120851970849, -96.6536984802915]}}, {"geometry": {"type": "Point", "coordinates": [-96.738015, 40.872008]}, "type": "Feature", "properties": {"city": "Lincoln", "neighborhood": "Highlands", "country": "US", "case_no": "B3-082069", "county": "Lancaster County", "state": "NE", "street": "NW 12th St", "address": "Northwest 12th Street & West Fletcher Avenue, Lincoln, NE 68521, USA", "postal": "68521"}, "bbox": {"northeast": [40.87343198029149, -96.73663461970848], "southwest": [40.87073401970849, -96.73933258029149]}}, {"geometry": {"type": "Point", "coordinates": [-96.693833, 40.814743]}, "type": "Feature", "properties": {"city": "Lincoln", "neighborhood": "Downtown", "country": "US", "case_no": "B4-086384", "county": "Lancaster County", "state": "NE", "street": "N Antelope Valley Pkwy", "address": "North Antelope Valley Parkway & P Street, Lincoln, NE 68508, USA", "postal": "68508"}, "bbox": {"northeast": [40.81606238029149, -96.69273351970851], "southwest": [40.8133644197085, -96.69543148029152]}}, {"geometry": {"type": "Point", "coordinates": [-96.70703, 40.812487]}, "type": "Feature", "properties": {"city": "Lincoln", "neighborhood": "Downtown", "country": "US", "case_no": "B3-101849", "county": "Lancaster County", "state": "NE", "street": "S 10th St", "address": "South 10th Street & N Street, Lincoln, NE 68527, USA", "postal": "68527"}, "bbox": {"northeast": [40.8138675802915, -96.7056438197085], "southwest": [40.8111696197085, -96.7083417802915]}}, {"geometry": {"type": "Point", "coordinates": [-96.696909, 40.813568]}, "type": "Feature", "properties": {"city": "Lincoln", "country": "US", "case_no": "B3-081359", "county": "Lancaster County", "state": "NE", "street": "W O St", "address": "West O Street & Northwest 17th Street, Lincoln, NE 68528, USA", "postal": "68528"}, "bbox": {"northeast": [40.81515118029149, -96.74443641970849], "southwest": [40.81245321970849, -96.74713438029151]}}, {"geometry": {"type": "Point", "coordinates": [-96.6933712, 40.7384049]}, "type": "Feature", "properties": {"city": "Lincoln", "country": "US", "case_no": "B5-037491", "county": "Lancaster County", "state": "NE", "street": "Pine Lake Rd", "address": "Pine Lake Road & Hazel Scott Drive, Lincoln, NE 68512, USA", "postal": "68512"}, "bbox": {"northeast": [40.7397538802915, -96.6920222197085], "southwest": [40.7370559197085, -96.69472018029151]}}, {"geometry": {"type": "Point", "coordinates": [-96.625064, 40.80608]}, "type": "Feature", "properties": {"city": "Lincoln", "country": "US", "case_no": "B3-076513", "county": "Lancaster County", "state": "NE", "street": "S 70th St", "address": "South 70th Street & South Wedgewood Drive, Lincoln, NE 68510, USA", "postal": "68510"}, "bbox": {"northeast": [40.80744198029149, -96.6237083197085], "southwest": [40.80474401970849, -96.6264062802915]}}, {"geometry": {"type": "Point", "coordinates": [-96.653744, 40.820792]}, "type": "Feature", "properties": {"city": "Lincoln", "neighborhood": "Hartley", "country": "US", "case_no": "B3-103503", "county": "Lancaster County", "state": "NE", "street": "Vine St", "address": "Vine Street & North 48th Street, Lincoln, NE 68504, USA", "postal": "68504"}, "bbox": {"northeast": [40.82204658029149, -96.6523205197085], "southwest": [40.81934861970849, -96.6550184802915]}}, {"geometry": {"type": "Point", "coordinates": [-96.66494589999999, 40.7916316]}, "type": "Feature", "properties": {"city": "Lincoln", "neighborhood": "40th&A", "country": "US", "case_no": "B5-024535", "county": "Lancaster County", "state": "NE", "street": "South St", "address": "South Street & Normal Boulevard, Lincoln, NE 68506, USA", "postal": "68506"}, "bbox": {"northeast": [40.79298058029149, -96.6635969197085], "southwest": [40.79028261970849, -96.6662948802915]}}, {"geometry": {"type": "Point", "coordinates": [-96.682159, 40.844717]}, "type": "Feature", "properties": {"city": "Lincoln", "neighborhood": "Sunset Acres", "country": "US", "case_no": "B4-044178", "county": "Lancaster County", "state": "NE", "street": "N 27th St", "address": "North 27th Street & K-Mart Drive, Lincoln, NE 68504, USA", "postal": "68504"}, "bbox": {"northeast": [40.8461085802915, -96.6806974197085], "southwest": [40.8434106197085, -96.6833953802915]}}, {"geometry": {"type": "Point", "coordinates": [-96.708581, 40.79922]}, "type": "Feature", "properties": {"city": "Lincoln", "neighborhood": "South Salt Creek", "country": "US", "case_no": "B5-026022", "county": "Lancaster County", "state": "NE", "street": "A St", "address": "A Street & South 9th Street, Lincoln, NE 68502, USA", "postal": "68502"}, "bbox": {"northeast": [40.8005689802915, -96.7072320197085], "southwest": [40.7978710197085, -96.7099299802915]}}, {"geometry": {"type": "Point", "coordinates": [-96.670195, 40.820765]}, "type": "Feature", "properties": {"city": "Lincoln", "neighborhood": "Hartley", "country": "US", "case_no": "B3-084182", "county": "Lancaster County", "state": "NE", "street": "Vine St", "address": "Vine Street & North 35th Street, Lincoln, NE 68503, USA", "postal": "68503"}, "bbox": {"northeast": [40.82213498029149, -96.6688540197085], "southwest": [40.8194370197085, -96.67155198029151]}}, {"geometry": {"type": "Point", "coordinates": [-96.605958, 40.794763]}, "type": "Feature", "properties": {"city": "Lincoln", "country": "US", "case_no": "B4-112515", "county": "Lancaster County", "state": "NE", "street": "S 84th St", "address": "South 84th Street & Norval Road, Lincoln, NE 68520, USA", "postal": "68520"}, "bbox": {"northeast": [40.7961473802915, -96.60467661970851], "southwest": [40.7934494197085, -96.60737458029152]}}, {"geometry": {"type": "Point", "coordinates": [-96.696752, 40.815814]}, "type": "Feature", "properties": {"city": "Lincoln", "neighborhood": "Downtown", "country": "US", "case_no": "B3-089468", "county": "Lancaster County", "state": "NE", "street": "N 17th St", "address": "University of Nebraska-Lincoln, North 17th Street & Q Street, Lincoln, NE 68508, USA", "postal": "68508"}, "bbox": {"northeast": [40.8171719802915, -96.69538301970849], "southwest": [40.8144740197085, -96.6980809802915]}}, {"geometry": {"type": "Point", "coordinates": [-96.682498, 40.798929]}, "type": "Feature", "properties": {"city": "Lincoln", "neighborhood": "Near South", "country": "US", "case_no": "B4-073357", "county": "Lancaster County", "state": "NE", "street": "A St", "address": "A Street & South 27th Street, Lincoln, NE 68502, USA", "postal": "68502"}, "bbox": {"northeast": [40.8002919802915, -96.68100301970848], "southwest": [40.7975940197085, -96.68370098029149]}}, {"geometry": {"type": "Point", "coordinates": [-96.677213, 40.755385]}, "type": "Feature", "properties": {"city": "Lincoln", "country": "US", "case_no": "B4-050934", "county": "Lancaster County", "state": "NE", "street": "Old Cheney Rd", "address": "3050 Old Cheney Road, Lincoln, NE 68516, USA", "postal": "68516", "housenumber": "3050"}, "bbox": {"northeast": [40.7567825802915, -96.67580891970849], "southwest": [40.75408461970851, -96.6785068802915]}}, {"geometry": {"type": "Point", "coordinates": [-96.682284, 40.82254]}, "type": "Feature", "properties": {"city": "Lincoln", "neighborhood": "Hawley", "country": "US", "case_no": "B3-119459", "county": "Lancaster County", "state": "NE", "street": "W St", "address": "2650 W Street, Lincoln, NE 68503, USA", "postal": "68503", "housenumber": "2650"}, "bbox": {"northeast": [40.8239102802915, -96.68137491970849], "southwest": [40.8212123197085, -96.68407288029151]}}, {"geometry": {"type": "Point", "coordinates": [-96.655529, 40.813455]}, "type": "Feature", "properties": {"city": "Lincoln", "neighborhood": "Hartley", "country": "US", "case_no": "B3-046493", "county": "Lancaster County", "state": "NE", "street": "E O St", "address": "East O Street & North 46th Street, Lincoln, NE 68503, USA", "postal": "68503"}, "bbox": {"northeast": [40.8148829802915, -96.65476001970849], "southwest": [40.8121850197085, -96.65745798029151]}}, {"geometry": {"type": "Point", "coordinates": [-96.639332, 40.831645]}, "type": "Feature", "properties": {"city": "Lincoln", "neighborhood": "University Place", "country": "US", "case_no": "B4-094535", "county": "Lancaster County", "state": "NE", "street": "N 60th St", "address": "North 60th Street & Lexington Avenue, Lincoln, NE 68505, USA", "postal": "68505"}, "bbox": {"northeast": [40.8338654802915, -96.63800861970849], "southwest": [40.8311675197085, -96.6407065802915]}}, {"geometry": {"type": "Point", "coordinates": [-96.708533, 40.80808]}, "type": "Feature", "properties": {"city": "Lincoln", "neighborhood": "South Salt Creek", "country": "US", "case_no": "B4-054621", "county": "Lancaster County", "state": "NE", "street": "S 9th St", "address": "South 9th Street & J Street, Lincoln, NE 68508, USA", "postal": "68508"}, "bbox": {"northeast": [40.8094554802915, -96.7071613197085], "southwest": [40.8067575197085, -96.70985928029151]}}, {"geometry": {"type": "Point", "coordinates": [-96.653744, 40.820792]}, "type": "Feature", "properties": {"city": "Lincoln", "neighborhood": "Hartley", "country": "US", "case_no": "B3-060446", "county": "Lancaster County", "state": "NE", "street": "Vine St", "address": "Vine Street & North 48th Street, Lincoln, NE 68504, USA", "postal": "68504"}, "bbox": {"northeast": [40.82204658029149, -96.6523205197085], "southwest": [40.81934861970849, -96.6550184802915]}}, {"geometry": {"type": "Point", "coordinates": [-96.60615, 40.761258]}, "type": "Feature", "properties": {"city": "Lincoln", "country": "US", "case_no": "B3-074182", "county": "Lancaster County", "state": "NE", "street": "S 84th St", "address": "South 84th Street & Augusta Drive, Lincoln, NE 68516, USA", "postal": "68516"}, "bbox": {"northeast": [40.7626038802915, -96.60486001970848], "southwest": [40.7599059197085, -96.6075579802915]}}, {"geometry": {"type": "Point", "coordinates": [-96.679312, 40.7402095]}, "type": "Feature", "properties": {"city": "Lincoln", "country": "US", "case_no": "B5-021511", "county": "Lancaster County", "state": "NE", "street": "Pine Lake Rd", "address": "Pine Lake Road & South 29th Street, Lincoln, NE 68516, USA", "postal": "68516"}, "bbox": {"northeast": [40.74155848029149, -96.67796301970849], "southwest": [40.7388605197085, -96.68066098029149]}}, {"geometry": {"type": "Point", "coordinates": [-96.6059259, 40.8395029]}, "type": "Feature", "properties": {"city": "Lincoln", "country": "US", "case_no": "B4-055927", "county": "Lancaster County", "state": "NE", "street": "N 84th St", "address": "North 84th Street & Windmill Drive, Lincoln, NE 68507, USA", "postal": "68507"}, "bbox": {"northeast": [40.8408518802915, -96.6045769197085], "southwest": [40.8381539197085, -96.60727488029151]}}, {"geometry": {"type": "Point", "coordinates": [-96.62517, 40.778343]}, "type": "Feature", "properties": {"city": "Lincoln", "neighborhood": "Havelock", "country": "US", "case_no": "B3-081213", "county": "Lancaster County", "state": "NE", "street": "N 70th St", "address": "3800 North 70th Street, Lincoln, NE 68507, USA", "postal": "68507", "housenumber": "3800"}, "bbox": {"northeast": [40.8520803302915, -96.62352411970849], "southwest": [40.8493823697085, -96.6262220802915]}}, {"geometry": {"type": "Point", "coordinates": [-96.605933, 40.827977]}, "type": "Feature", "properties": {"city": "Lincoln", "neighborhood": "Meadowlane", "country": "US", "case_no": "B3-047233", "county": "Lancaster County", "state": "NE", "street": "N 84th St", "address": "North 84th Street & Holdrege Street, Lincoln, NE 68505, USA", "postal": "68505"}, "bbox": {"northeast": [40.82934668029149, -96.60446501970848], "southwest": [40.82664871970849, -96.6071629802915]}}, {"geometry": {"type": "Point", "coordinates": [-96.682418, 40.81464]}, "type": "Feature", "properties": {"city": "Lincoln", "neighborhood": "Hawley", "country": "US", "case_no": "B3-043033", "county": "Lancaster County", "state": "NE", "street": "N 27th St", "address": "North 27th Street & P Street, Lincoln, NE 68503, USA", "postal": "68503"}, "bbox": {"northeast": [40.8160061802915, -96.68089591970849], "southwest": [40.8133082197085, -96.68359388029151]}}, {"geometry": {"type": "Point", "coordinates": [-96.7328016, 40.8137294]}, "type": "Feature", "properties": {"city": "Lincoln", "country": "US", "case_no": "B4-037179", "county": "Lancaster County", "state": "NE", "street": "W O St", "address": "West O Street & Northwest Roundhouse Drive, Lincoln, NE 68528, USA", "postal": "68528"}, "bbox": {"northeast": [40.8150783802915, -96.7314526197085], "southwest": [40.8123804197085, -96.73415058029151]}}, {"geometry": {"type": "Point", "coordinates": [-96.682333, 40.824368]}, "type": "Feature", "properties": {"city": "Lincoln", "neighborhood": "Clinton", "country": "US", "case_no": "B3-038383", "county": "Lancaster County", "state": "NE", "street": "N 27th St", "address": "North 27th Street & Y Street, Lincoln, NE 68503, USA", "postal": "68503"}, "bbox": {"northeast": [40.82571608029151, -96.68097571970848], "southwest": [40.82301811970851, -96.68367368029149]}}, {"geometry": {"type": "Point", "coordinates": [-96.69385899999999, 40.813584]}, "type": "Feature", "properties": {"city": "Lincoln", "neighborhood": "Downtown", "country": "US", "case_no": "B4-086701", "county": "Lancaster County", "state": "NE", "street": "E O St", "address": "East O Street & South Antelope Valley Parkway, Lincoln, NE 68508, USA", "postal": "68508"}, "bbox": {"northeast": [40.81493298029149, -96.6925100197085], "southwest": [40.8122350197085, -96.6952079802915]}}, {"geometry": {"type": "Point", "coordinates": [-96.6820235, 40.8475668]}, "type": "Feature", "properties": {"city": "Lincoln", "neighborhood": "Sunset Acres", "country": "US", "case_no": "B5-038654", "county": "Lancaster County", "state": "NE", "street": "N 27th St", "address": "North 27th Street & Fairfield Street, Lincoln, NE 68521, USA", "postal": "68521"}, "bbox": {"northeast": [40.84891578029151, -96.6806745197085], "southwest": [40.84621781970851, -96.68337248029151]}}, {"geometry": {"type": "Point", "coordinates": [-96.653744, 40.820792]}, "type": "Feature", "properties": {"city": "Lincoln", "neighborhood": "Hartley", "country": "US", "case_no": "B3-092019", "county": "Lancaster County", "state": "NE", "street": "Vine St", "address": "Vine Street & North 48th Street, Lincoln, NE 68504, USA", "postal": "68504"}, "bbox": {"northeast": [40.82204658029149, -96.6523205197085], "southwest": [40.81934861970849, -96.6550184802915]}}, {"geometry": {"type": "Point", "coordinates": [-96.644269, 40.776981]}, "type": "Feature", "properties": {"city": "Lincoln", "country": "US", "case_no": "B3-090501", "county": "Lancaster County", "state": "NE", "street": "S 56th St", "address": "South 56th Street & Calvert Street, Lincoln, NE 68506, USA", "postal": "68506"}, "bbox": {"northeast": [40.77834118029151, -96.6429392197085], "southwest": [40.77564321970851, -96.6456371802915]}}, {"geometry": {"type": "Point", "coordinates": [-96.630605, 40.818293]}, "type": "Feature", "properties": {"city": "Lincoln", "neighborhood": "Meadowlane", "country": "US", "case_no": "B4-047879", "county": "Lancaster County", "state": "NE", "street": "N 66th St", "address": "500 North 66th Street, Lincoln, NE 68505, USA", "postal": "68505", "housenumber": "500"}, "bbox": {"northeast": [40.81891838029149, -96.6282746197085], "southwest": [40.8162204197085, -96.63097258029151]}}, {"geometry": {"type": "Point", "coordinates": [-96.67536299999999, 40.7988386]}, "type": "Feature", "properties": {"city": "Lincoln", "country": "US", "case_no": "B5-030109", "county": "Lancaster County", "state": "NE", "street": "A St", "address": "A Street & Capitol Parkway, Lincoln, NE 68510, USA", "postal": "68510"}, "bbox": {"northeast": [40.8001875802915, -96.67401401970848], "southwest": [40.7974896197085, -96.6767119802915]}}, {"geometry": {"type": "Point", "coordinates": [-96.702677, 40.809184]}, "type": "Feature", "properties": {"city": "Lincoln", "neighborhood": "Downtown", "country": "US", "case_no": "B4-073314", "county": "Lancaster County", "state": "NE", "street": "S 13th St", "address": "550 South 13th Street, Lincoln, NE 68508, USA", "postal": "68508", "housenumber": "550"}, "bbox": {"northeast": [40.8096997302915, -96.70128741970849], "southwest": [40.8070017697085, -96.7039853802915]}}, {"geometry": {"type": "Point", "coordinates": [-96.6060014, 40.7551691]}, "type": "Feature", "properties": {"city": "Lincoln", "country": "US", "case_no": "B5-041681", "county": "Lancaster County", "state": "NE", "street": "S 84th St", "address": "South 84th Street & Old Cheney Road, Lincoln, NE 68526, USA", "postal": "68526"}, "bbox": {"northeast": [40.75651808029149, -96.6046524197085], "southwest": [40.75382011970849, -96.6073503802915]}}, {"geometry": {"type": "Point", "coordinates": [-96.702626, 40.81474]}, "type": "Feature", "properties": {"city": "Lincoln", "neighborhood": "Downtown", "country": "US", "case_no": "B3-012814", "county": "Lancaster County", "state": "NE", "street": "P St", "address": "P Street & North 13th Street, Lincoln, NE 68508, USA", "postal": "68508"}, "bbox": {"northeast": [40.8160979802915, -96.7012350197085], "southwest": [40.8134000197085, -96.70393298029151]}}, {"geometry": {"type": "Point", "coordinates": [-96.702709, 40.799192]}, "type": "Feature", "properties": {"city": "Lincoln", "neighborhood": "Everett", "country": "US", "case_no": "B2-095376", "county": "Lancaster County", "state": "NE", "street": "A St", "address": "A Street & South 13th Street, Lincoln, NE 68502, USA", "postal": "68502"}, "bbox": {"northeast": [40.80054698029149, -96.7013440197085], "southwest": [40.7978490197085, -96.7040419802915]}}, {"geometry": {"type": "Point", "coordinates": [-96.675264, 40.798842]}, "type": "Feature", "properties": {"city": "Lincoln", "country": "US", "case_no": "B2-050954", "county": "Lancaster County", "state": "NE", "street": "A St", "address": "A Street & Capitol Parkway, Lincoln, NE 68510, USA", "postal": "68510"}, "bbox": {"northeast": [40.8001875802915, -96.67401401970848], "southwest": [40.7974896197085, -96.6767119802915]}}, {"geometry": {"type": "Point", "coordinates": [-96.696707, 40.798013]}, "type": "Feature", "properties": {"city": "Lincoln", "neighborhood": "Near South", "country": "US", "case_no": "B2-081321", "county": "Lancaster County", "state": "NE", "street": "S 17th St", "address": "South 17th Street & Washington Street, Lincoln, NE 68502, USA", "postal": "68502"}, "bbox": {"northeast": [40.7993749802915, -96.69530901970852], "southwest": [40.7966770197085, -96.69800698029152]}}, {"geometry": {"type": "Point", "coordinates": [-96.625064, 40.80608]}, "type": "Feature", "properties": {"city": "Lincoln", "country": "US", "case_no": "B2-047702", "county": "Lancaster County", "state": "NE", "street": "S 70th St", "address": "South 70th Street & South Wedgewood Drive, Lincoln, NE 68510, USA", "postal": "68510"}, "bbox": {"northeast": [40.80744198029149, -96.6237083197085], "southwest": [40.80474401970849, -96.6264062802915]}}, {"geometry": {"type": "Point", "coordinates": [-96.686415, 40.805655]}, "type": "Feature", "properties": {"city": "Lincoln", "neighborhood": "Downtown", "country": "US", "case_no": "B2-082011", "county": "Lancaster County", "state": "NE", "street": "Randolph St", "address": "Randolph Street & Capitol Parkway, Lincoln, NE 68510, USA", "postal": "68510"}, "bbox": {"northeast": [40.8070359802915, -96.68496301970849], "southwest": [40.8043380197085, -96.68766098029151]}}, {"geometry": {"type": "Point", "coordinates": [-96.644193, 40.791629]}, "type": "Feature", "properties": {"city": "Lincoln", "country": "US", "case_no": "B2-093637", "county": "Lancaster County", "state": "NE", "street": "S 56th St", "address": "South 56th Street & South Street, Lincoln, NE 68506, USA", "postal": "68506"}, "bbox": {"northeast": [40.79297898029149, -96.64281201970849], "southwest": [40.79028101970849, -96.64550998029151]}}, {"geometry": {"type": "Point", "coordinates": [-96.651366, 40.798894]}, "type": "Feature", "properties": {"city": "Lincoln", "country": "US", "case_no": "B2-079841", "county": "Lancaster County", "state": "NE", "street": "S Cotner Blvd", "address": "South Cotner Boulevard & Aldrich Road, Lincoln, NE 68510, USA", "postal": "68510"}, "bbox": {"northeast": [40.8009235802915, -96.64935621970848], "southwest": [40.7982256197085, -96.6520541802915]}}, {"geometry": {"type": "Point", "coordinates": [-96.719693, 40.857188]}, "type": "Feature", "properties": {"city": "Lincoln", "neighborhood": "West Lincoln", "country": "US", "case_no": "B2-062920", "county": "Lancaster County", "state": "NE", "street": "Superior St", "address": "Superior Street & North 1st Street, Lincoln, NE 68521, USA", "postal": "68521"}, "bbox": {"northeast": [40.85845028029149, -96.71842621970849], "southwest": [40.8557523197085, -96.7211241802915]}}, {"geometry": {"type": "Point", "coordinates": [-96.712311, 40.851141]}, "type": "Feature", "properties": {"city": "Lincoln", "country": "US", "case_no": "B3-029909", "county": "Lancaster County", "state": "NE", "street": "Superior St", "address": "600 Superior Street, Lincoln, NE 68521, USA", "postal": "68521", "housenumber": "600"}, "bbox": {"northeast": [40.8568530302915, -96.71048166970849], "southwest": [40.8541550697085, -96.7131796302915]}}, {"geometry": {"type": "Point", "coordinates": [-96.684667, 40.820767]}, "type": "Feature", "properties": {"city": "Lincoln", "neighborhood": "Hawley", "country": "US", "case_no": "B2-080234", "county": "Lancaster County", "state": "NE", "street": "Vine St", "address": "Vine Street & North 25th Street, Lincoln, NE 68503, USA", "postal": "68503"}, "bbox": {"northeast": [40.82216458029149, -96.6833127197085], "southwest": [40.8194666197085, -96.6860106802915]}}, {"geometry": {"type": "Point", "coordinates": [-96.701115, 40.81583]}, "type": "Feature", "properties": {"city": "Lincoln", "neighborhood": "Downtown", "country": "US", "case_no": "B3-029360", "county": "Lancaster County", "state": "NE", "street": "N 14th St", "address": "North 14th Street & Q Street, Lincoln, NE 68508, USA", "postal": "68508"}, "bbox": {"northeast": [40.8171899802915, -96.69979701970848], "southwest": [40.8144920197085, -96.7024949802915]}}, {"geometry": {"type": "Point", "coordinates": [-96.619356, 40.798926]}, "type": "Feature", "properties": {"city": "Lincoln", "country": "US", "case_no": "B2-085228", "county": "Lancaster County", "state": "NE", "street": "A St", "address": "A Street & Regency Drive, Lincoln, NE 68506, USA", "postal": "68506"}, "bbox": {"northeast": [40.8002759802915, -96.61796801970848], "southwest": [40.7975780197085, -96.62066598029149]}}, {"geometry": {"type": "Point", "coordinates": [-96.713006, 40.79925]}, "type": "Feature", "properties": {"city": "Lincoln", "neighborhood": "South Salt Creek", "country": "US", "case_no": "B2-058553", "county": "Lancaster County", "state": "NE", "street": "A St", "address": "A Street & South 6th Street, Lincoln, NE 68502, USA", "postal": "68502"}, "bbox": {"northeast": [40.8005839802915, -96.71167501970848], "southwest": [40.7978860197085, -96.71437298029149]}}, {"geometry": {"type": "Point", "coordinates": [-96.644153, 40.807984]}, "type": "Feature", "properties": {"city": "Lincoln", "country": "US", "case_no": "B2-065976", "county": "Lancaster County", "state": "NE", "street": "S 56th St", "address": "South 56th Street & J Street, Lincoln, NE 68510, USA", "postal": "68510"}, "bbox": {"northeast": [40.80935478029149, -96.64278581970848], "southwest": [40.80665681970849, -96.6454837802915]}}, {"geometry": {"type": "Point", "coordinates": [-96.686415, 40.805655]}, "type": "Feature", "properties": {"city": "Lincoln", "neighborhood": "Downtown", "country": "US", "case_no": "B2-082574", "county": "Lancaster County", "state": "NE", "street": "Randolph St", "address": "Randolph Street & Capitol Parkway, Lincoln, NE 68510, USA", "postal": "68510"}, "bbox": {"northeast": [40.8070359802915, -96.68496301970849], "southwest": [40.8043380197085, -96.68766098029151]}}, {"geometry": {"type": "Point", "coordinates": [-96.686664, 40.79895]}, "type": "Feature", "properties": {"city": "Lincoln", "neighborhood": "Near South", "country": "US", "case_no": "B2-074084", "county": "Lancaster County", "state": "NE", "street": "A St", "address": "A Street & South 24th Street, Lincoln, NE 68502, USA", "postal": "68502"}, "bbox": {"northeast": [40.80030298029149, -96.68515701970848], "southwest": [40.79760501970849, -96.68785498029149]}}, {"geometry": {"type": "Point", "coordinates": [-96.704062, 40.815856]}, "type": "Feature", "properties": {"city": "Lincoln", "neighborhood": "Downtown", "country": "US", "case_no": "B3-022852", "county": "Lancaster County", "state": "NE", "street": "Q St", "address": "Q Street & North 12th Street, Lincoln, NE 68508, USA", "postal": "68508"}, "bbox": {"northeast": [40.8171979802915, -96.70267301970848], "southwest": [40.8145000197085, -96.70537098029149]}}, {"geometry": {"type": "Point", "coordinates": [-96.677563, 40.769137]}, "type": "Feature", "properties": {"city": "Lincoln", "country": "US", "case_no": "B2-074906", "county": "Lancaster County", "state": "NE", "street": "NE-2", "address": "Nebraska 2 & Pioneers Boulevard, Lincoln, NE 68502, USA", "postal": "68502"}, "bbox": {"northeast": [40.7760389802915, -96.70339411970849], "southwest": [40.7733410197085, -96.70609208029151]}}, {"geometry": {"type": "Point", "coordinates": [-96.682507, 40.74497]}, "type": "Feature", "properties": {"city": "Lincoln", "country": "US", "case_no": "B2-082391", "county": "Lancaster County", "state": "NE", "street": "S 27th St", "address": "South 27th Street & Laredo Drive, Lincoln, NE 68512, USA", "postal": "68512"}, "bbox": {"northeast": [40.7463251802915, -96.68126601970849], "southwest": [40.7436272197085, -96.68396398029151]}}, {"geometry": {"type": "Point", "coordinates": [-96.644203, 40.783372]}, "type": "Feature", "properties": {"city": "Lincoln", "country": "US", "case_no": "B3-013174", "county": "Lancaster County", "state": "NE", "street": "Van Dorn St", "address": "Van Dorn Street & South 56th Street, Lincoln, NE 68506, USA", "postal": "68506"}, "bbox": {"northeast": [40.7847988802915, -96.6429057197085], "southwest": [40.7821009197085, -96.6456036802915]}}, {"geometry": {"type": "Point", "coordinates": [-96.725169, 40.813701]}, "type": "Feature", "properties": {"city": "Lincoln", "country": "US", "case_no": "B2-063491", "county": "Lancaster County", "state": "NE", "street": "W O St", "address": "West O Street & Sun Valley Boulevard, Lincoln, NE 68528, USA", "postal": "68528"}, "bbox": {"northeast": [40.8150430802915, -96.72370931970852], "southwest": [40.8123451197085, -96.72640728029153]}}, {"geometry": {"type": "Point", "coordinates": [-96.699938, 40.857434]}, "type": "Feature", "properties": {"city": "Lincoln", "neighborhood": "Belmont", "country": "US", "case_no": "B2-074832", "county": "Lancaster County", "state": "NE", "street": "Superior St", "address": "Superior Street & Bel Ridge Drive, Lincoln, NE 68521, USA", "postal": "68521"}, "bbox": {"northeast": [40.8587794802915, -96.69556031970849], "southwest": [40.8560815197085, -96.69825828029151]}}, {"geometry": {"type": "Point", "coordinates": [-96.708742, 40.819146]}, "type": "Feature", "properties": {"city": "Lincoln", "country": "US", "case_no": "B3-031386", "county": "Lancaster County", "state": "NE", "street": "N 9th St", "address": "North 9th Street & R Street, Lincoln, NE 68508, USA", "postal": "68508"}, "bbox": {"northeast": [40.8183029802915, -96.70712391970851], "southwest": [40.8156050197085, -96.70982188029151]}}, {"geometry": {"type": "Point", "coordinates": [-96.655404, 40.777028]}, "type": "Feature", "properties": {"city": "Lincoln", "country": "US", "case_no": "B2-060432", "county": "Lancaster County", "state": "NE", "street": "Calvert St", "address": "Calvert Street & South 47th Street, Lincoln, NE 68506, USA", "postal": "68506"}, "bbox": {"northeast": [40.7783981802915, -96.65406801970849], "southwest": [40.7757002197085, -96.65676598029151]}}, {"geometry": {"type": "Point", "coordinates": [-96.682105, 40.855374]}, "type": "Feature", "properties": {"city": "Lincoln", "neighborhood": "Landon's", "country": "US", "case_no": "B2-055398", "county": "Lancaster County", "state": "NE", "street": "N 27th St", "address": "North 27th Street & King Lane, Lincoln, NE 68521, USA", "postal": "68521"}, "bbox": {"northeast": [40.8567505802915, -96.68081261970849], "southwest": [40.8540526197085, -96.68351058029151]}}, {"geometry": {"type": "Point", "coordinates": [-96.702677, 40.809184]}, "type": "Feature", "properties": {"city": "Lincoln", "neighborhood": "Downtown", "country": "US", "case_no": "B2-111140", "county": "Lancaster County", "state": "NE", "street": "S 13th St", "address": "South 13th Street & L Street, Lincoln, NE 68508, USA", "postal": "68508"}, "bbox": {"northeast": [40.81164898029149, -96.70127101970849], "southwest": [40.80895101970849, -96.70396898029149]}}, {"geometry": {"type": "Point", "coordinates": [-96.672831, 40.828004]}, "type": "Feature", "properties": {"city": "Lincoln", "neighborhood": "Clinton", "country": "US", "case_no": "B2-087482", "county": "Lancaster County", "state": "NE", "street": "Holdrege St", "address": "University of Nebraska-Lincoln, University of Nebraska-Lincoln: East Campus, Holdrege Street & North 33rd Street, Lincoln, NE 68503, USA", "postal": "68503"}, "bbox": {"northeast": [40.8293699802915, -96.67151201970849], "southwest": [40.8266720197085, -96.6742099802915]}}, {"geometry": {"type": "Point", "coordinates": [-96.630955, 40.857017]}, "type": "Feature", "properties": {"city": "Lincoln", "neighborhood": "Havelock", "country": "US", "case_no": "B2-050427", "county": "Lancaster County", "state": "NE", "street": "Havelock Ave", "address": "Havelock Avenue & North 66th Street, Lincoln, NE 68507, USA", "postal": "68507"}, "bbox": {"northeast": [40.8583486802915, -96.62906861970849], "southwest": [40.8556507197085, -96.63176658029151]}}, {"geometry": {"type": "Point", "coordinates": [-96.65368, 40.842552]}, "type": "Feature", "properties": {"city": "Lincoln", "neighborhood": "University Place", "country": "US", "case_no": "B2-053741", "county": "Lancaster County", "state": "NE", "street": "Adams St", "address": "Adams Street & North 48th Street, Lincoln, NE 68504, USA", "postal": "68504"}, "bbox": {"northeast": [40.8439109802915, -96.6523960197085], "southwest": [40.8412130197085, -96.65509398029151]}}, {"geometry": {"type": "Point", "coordinates": [-96.682447, 40.791671]}, "type": "Feature", "properties": {"city": "Lincoln", "neighborhood": "Country Club", "country": "US", "case_no": "B2-113357", "county": "Lancaster County", "state": "NE", "street": "S 27th St", "address": "South 27th Street & Ryons Street, Lincoln, NE 68502, USA", "postal": "68502"}, "bbox": {"northeast": [40.79212628029149, -96.6811110197085], "southwest": [40.78942831970849, -96.6838089802915]}}, {"geometry": {"type": "Point", "coordinates": [-96.6936796, 40.8080983]}, "type": "Feature", "properties": {"city": "Lincoln", "neighborhood": "Downtown", "country": "US", "case_no": "B2-091427", "county": "Lancaster County", "state": "NE", "street": "J St", "address": "J Street & South 19th Street, Lincoln, NE 68510, USA", "postal": "68510"}, "bbox": {"northeast": [40.80944728029149, -96.69233061970849], "southwest": [40.8067493197085, -96.6950285802915]}}, {"geometry": {"type": "Point", "coordinates": [-96.682484, 40.755419]}, "type": "Feature", "properties": {"city": "Lincoln", "country": "US", "case_no": "B2-056866", "county": "Lancaster County", "state": "NE", "street": "Old Cheney Rd", "address": "Old Cheney Road & South 27th Street, Lincoln, NE 68512, USA", "postal": "68512"}, "bbox": {"northeast": [40.75672468029149, -96.68121561970848], "southwest": [40.7540267197085, -96.68391358029149]}}, {"geometry": {"type": "Point", "coordinates": [-96.686415, 40.805655]}, "type": "Feature", "properties": {"city": "Lincoln", "neighborhood": "Downtown", "country": "US", "case_no": "B3-008339", "county": "Lancaster County", "state": "NE", "street": "Randolph St", "address": "Randolph Street & Capitol Parkway, Lincoln, NE 68510, USA", "postal": "68510"}, "bbox": {"northeast": [40.8070359802915, -96.68496301970849], "southwest": [40.8043380197085, -96.68766098029151]}}, {"geometry": {"type": "Point", "coordinates": [-96.653801, 40.755297]}, "type": "Feature", "properties": {"city": "Lincoln", "country": "US", "case_no": "B2-058410", "county": "Lancaster County", "state": "NE", "street": "Old Cheney Rd", "address": "Old Cheney Road & South 48th Street, Lincoln, NE 68516, USA", "postal": "68516"}, "bbox": {"northeast": [40.7566893802915, -96.65242921970848], "southwest": [40.75399141970851, -96.6551271802915]}}, {"geometry": {"type": "Point", "coordinates": [-96.624945, 40.834135]}, "type": "Feature", "properties": {"city": "Lincoln", "neighborhood": "Bethany", "country": "US", "case_no": "B2-110351", "county": "Lancaster County", "state": "NE", "street": "N 70th St", "address": "North 70th Street & Ammon Avenue, Lincoln, NE 68507, USA", "postal": "68507"}, "bbox": {"northeast": [40.8418246802915, -96.62354951970849], "southwest": [40.8391267197085, -96.62624748029151]}}, {"geometry": {"type": "Point", "coordinates": [-96.6633023, 40.758402]}, "type": "Feature", "properties": {"city": "Lincoln", "country": "US", "case_no": "B5-046273", "county": "Lancaster County", "state": "NE", "street": "S 40th St", "address": "South 40th Street & Wildbriar Lane, Lincoln, NE 68516, USA", "postal": "68516"}, "bbox": {"northeast": [40.75975098029149, -96.6619533197085], "southwest": [40.75705301970849, -96.66465128029151]}}, {"geometry": {"type": "Point", "coordinates": [-96.708577, 40.804745]}, "type": "Feature", "properties": {"city": "Lincoln", "neighborhood": "South Salt Creek", "country": "US", "case_no": "B2-001356", "county": "Lancaster County", "state": "NE", "street": "S 9th St", "address": "South 9th Street & F Street, Lincoln, NE 68508, USA", "postal": "68508"}, "bbox": {"northeast": [40.8061129802915, -96.70718201970848], "southwest": [40.8034150197085, -96.7098799802915]}}, {"geometry": {"type": "Point", "coordinates": [-96.644303, 40.772852]}, "type": "Feature", "properties": {"city": "Lincoln", "country": "US", "case_no": "B2-007793", "county": "Lancaster County", "state": "NE", "street": "S 56th St", "address": "South 56th Street & Prescott Avenue, Lincoln, NE 68506, USA", "postal": "68506"}, "bbox": {"northeast": [40.77421038029149, -96.64294531970849], "southwest": [40.77151241970849, -96.6456432802915]}}, {"geometry": {"type": "Point", "coordinates": [-96.707344, 40.817406]}, "type": "Feature", "properties": {"city": "Lincoln", "neighborhood": "Downtown", "country": "US", "case_no": "B2-005149", "county": "Lancaster County", "state": "NE", "street": "N 10th St", "address": "North 10th Street & Q Street, Lincoln, NE 68508, USA", "postal": "68508"}, "bbox": {"northeast": [40.8172089802915, -96.70563601970848], "southwest": [40.8145110197085, -96.7083339802915]}}, {"geometry": {"type": "Point", "coordinates": [-96.687698, 40.808051]}, "type": "Feature", "properties": {"city": "Lincoln", "neighborhood": "Downtown", "country": "US", "case_no": "B2-002663", "county": "Lancaster County", "state": "NE", "street": "Capitol Pkwy", "address": "Capitol Parkway & J Street, Lincoln, NE 68510, USA", "postal": "68510"}, "bbox": {"northeast": [40.80939558029149, -96.68640441970848], "southwest": [40.80669761970849, -96.6891023802915]}}, {"geometry": {"type": "Point", "coordinates": [-96.694353, 40.791686]}, "type": "Feature", "properties": {"city": "Lincoln", "neighborhood": "Near South", "country": "US", "case_no": "B2-006719", "county": "Lancaster County", "state": "NE", "street": "South St", "address": "South Street & South 19th Street, Lincoln, NE 68502, USA", "postal": "68502"}, "bbox": {"northeast": [40.79311158029151, -96.69300211970848], "southwest": [40.79041361970851, -96.6957000802915]}}, {"geometry": {"type": "Point", "coordinates": [-96.708528, 40.809217]}, "type": "Feature", "properties": {"city": "Lincoln", "neighborhood": "South Salt Creek", "country": "US", "case_no": "B2-009144", "county": "Lancaster County", "state": "NE", "street": "S 9th St", "address": "South 9th Street & K Street, Lincoln, NE 68508, USA", "postal": "68508"}, "bbox": {"northeast": [40.8105735802915, -96.70715291970852], "southwest": [40.8078756197085, -96.70985088029153]}}, {"geometry": {"type": "Point", "coordinates": [-96.720392, 40.835637]}, "type": "Feature", "properties": {"city": "Lincoln", "neighborhood": "West Lincoln", "country": "US", "case_no": "B2-024814", "county": "Lancaster County", "state": "NE", "street": "Cornhusker Hwy", "address": "Cornhusker Highway & North 1st Street, Lincoln, NE 68521, USA", "postal": "68521"}, "bbox": {"northeast": [40.8370350802915, -96.7189379197085], "southwest": [40.8343371197085, -96.7216358802915]}}, {"geometry": {"type": "Point", "coordinates": [-96.672825, 40.802568]}, "type": "Feature", "properties": {"city": "Lincoln", "neighborhood": "Woods Park", "country": "US", "case_no": "B2-040476", "county": "Lancaster County", "state": "NE", "street": "S 33rd St", "address": "South 33rd Street & D Street, Lincoln, NE 68510, USA", "postal": "68510"}, "bbox": {"northeast": [40.80392328029151, -96.6714950197085], "southwest": [40.80122531970851, -96.67419298029151]}}, {"geometry": {"type": "Point", "coordinates": [-96.682411, 40.802506]}, "type": "Feature", "properties": {"city": "Lincoln", "neighborhood": "Woods Park", "country": "US", "case_no": "B2-041184", "county": "Lancaster County", "state": "NE", "street": "S 27th St", "address": "South 27th Street & Capitol Parkway, Lincoln, NE 68510, USA", "postal": "68510"}, "bbox": {"northeast": [40.80396598029149, -96.68110061970852], "southwest": [40.8012680197085, -96.68379858029152]}}, {"geometry": {"type": "Point", "coordinates": [-96.691093, 40.857232]}, "type": "Feature", "properties": {"city": "Lincoln", "neighborhood": "Landon's", "country": "US", "case_no": "B2-039103", "county": "Lancaster County", "state": "NE", "street": "Superior St", "address": "Superior Street & North 20th Street, Lincoln, NE 68521, USA", "postal": "68521"}, "bbox": {"northeast": [40.8585377802915, -96.6897123197085], "southwest": [40.8558398197085, -96.69241028029151]}}, {"geometry": {"type": "Point", "coordinates": [-96.672809, 40.817084]}, "type": "Feature", "properties": {"city": "Lincoln", "neighborhood": "Hartley", "country": "US", "case_no": "B2-022418", "county": "Lancaster County", "state": "NE", "street": "N 33rd St", "address": "North 33rd Street & Q Street, Lincoln, NE 68503, USA", "postal": "68503"}, "bbox": {"northeast": [40.8168769802915, -96.67148801970849], "southwest": [40.8141790197085, -96.67418598029151]}}, {"geometry": {"type": "Point", "coordinates": [-96.663246, 40.788029]}, "type": "Feature", "properties": {"city": "Lincoln", "country": "US", "case_no": "B2-025386", "county": "Lancaster County", "state": "NE", "street": "S 40th St", "address": "South 40th Street & Lake Street, Lincoln, NE 68506, USA", "postal": "68506"}, "bbox": {"northeast": [40.78938198029149, -96.6619340197085], "southwest": [40.7866840197085, -96.6646319802915]}}, {"geometry": {"type": "Point", "coordinates": [-96.644141, 40.822612]}, "type": "Feature", "properties": {"city": "Lincoln", "neighborhood": "Culler", "country": "US", "case_no": "B2-027401", "county": "Lancaster County", "state": "NE", "street": "N 56th St", "address": "North 56th Street & Wilshire Boulevard, Lincoln, NE 68505, USA", "postal": "68505"}, "bbox": {"northeast": [40.8239769802915, -96.64279301970849], "southwest": [40.82127901970851, -96.6454909802915]}}, {"geometry": {"type": "Point", "coordinates": [-96.65368, 40.842552]}, "type": "Feature", "properties": {"city": "Lincoln", "neighborhood": "University Place", "country": "US", "case_no": "B2-028640", "county": "Lancaster County", "state": "NE", "street": "Adams St", "address": "Adams Street & North 48th Street, Lincoln, NE 68504, USA", "postal": "68504"}, "bbox": {"northeast": [40.8439109802915, -96.6523960197085], "southwest": [40.8412130197085, -96.65509398029151]}}, {"geometry": {"type": "Point", "coordinates": [-96.687698, 40.808051]}, "type": "Feature", "properties": {"city": "Lincoln", "neighborhood": "Downtown", "country": "US", "case_no": "B2-016091", "county": "Lancaster County", "state": "NE", "street": "Capitol Pkwy", "address": "Capitol Parkway & J Street, Lincoln, NE 68510, USA", "postal": "68510"}, "bbox": {"northeast": [40.80939558029149, -96.68640441970848], "southwest": [40.80669761970849, -96.6891023802915]}}, {"geometry": {"type": "Point", "coordinates": [-96.701186, 40.842889]}, "type": "Feature", "properties": {"city": "Lincoln", "neighborhood": "Belmont", "country": "US", "case_no": "B2-044522", "county": "Lancaster County", "state": "NE", "street": "N 14th St", "address": "North 14th Street & Adams Street, Lincoln, NE 68521, USA", "postal": "68521"}, "bbox": {"northeast": [40.8442409802915, -96.69986301970849], "southwest": [40.8415430197085, -96.70256098029151]}}, {"geometry": {"type": "Point", "coordinates": [-96.682548, 40.741622]}, "type": "Feature", "properties": {"city": "Lincoln", "country": "US", "case_no": "B2-044231", "county": "Lancaster County", "state": "NE", "street": "S 27th St", "address": "South 27th Street & Southridge Road, Lincoln, NE 68516, USA", "postal": "68516"}, "bbox": {"northeast": [40.7430389802915, -96.68108911970849], "southwest": [40.7403410197085, -96.68378708029151]}}, {"geometry": {"type": "Point", "coordinates": [-96.681999, 40.869902]}, "type": "Feature", "properties": {"city": "Lincoln", "country": "US", "case_no": "B2-039412", "county": "Lancaster County", "state": "NE", "street": "N 27th St", "address": "North 27th Street & Enterprise Drive, Lincoln, NE 68521, USA", "postal": "68521"}, "bbox": {"northeast": [40.8712749802915, -96.6806990197085], "southwest": [40.8685770197085, -96.6833969802915]}}, {"geometry": {"type": "Point", "coordinates": [-96.6820352, 40.8424934]}, "type": "Feature", "properties": {"city": "Lincoln", "country": "US", "case_no": "B2-019522", "county": "Lancaster County", "state": "NE", "street": "Cornhusker Hwy", "address": "Cornhusker Highway & North 27th Street, Lincoln, NE 68504, USA", "postal": "68504"}, "bbox": {"northeast": [40.84384238029149, -96.6806862197085], "southwest": [40.84114441970849, -96.68338418029151]}}, {"geometry": {"type": "Point", "coordinates": [-96.653702, 40.795276]}, "type": "Feature", "properties": {"city": "Lincoln", "country": "US", "case_no": "B2-029634", "county": "Lancaster County", "state": "NE", "street": "S 48th St", "address": "South 48th Street & Sumner Street, Lincoln, NE 68506, USA", "postal": "68506"}, "bbox": {"northeast": [40.7966379802915, -96.65234801970848], "southwest": [40.7939400197085, -96.6550459802915]}}, {"geometry": {"type": "Point", "coordinates": [-96.663273, 40.795307]}, "type": "Feature", "properties": {"city": "Lincoln", "neighborhood": "40th&A", "country": "US", "case_no": "B2-039449", "county": "Lancaster County", "state": "NE", "street": "S 40th St", "address": "South 40th Street & Sumner Street, Lincoln, NE 68506, USA", "postal": "68506"}, "bbox": {"northeast": [40.79664698029149, -96.66193301970848], "southwest": [40.7939490197085, -96.66463098029149]}}, {"geometry": {"type": "Point", "coordinates": [-96.644326, 40.758671]}, "type": "Feature", "properties": {"city": "Lincoln", "neighborhood": "Colonial Hills", "country": "US", "case_no": "B2-044598", "county": "Lancaster County", "state": "NE", "street": "S 56th St", "address": "South 56th Street & Shady Creek Court, Lincoln, NE 68516, USA", "postal": "68516"}, "bbox": {"northeast": [40.76003678029149, -96.6430139197085], "southwest": [40.7573388197085, -96.6457118802915]}}, {"geometry": {"type": "Point", "coordinates": [-96.625114, 40.784285]}, "type": "Feature", "properties": {"city": "Lincoln", "country": "US", "case_no": "B2-029926", "county": "Lancaster County", "state": "NE", "street": "S 70th St", "address": "South 70th Street & Van Dorn Street, Lincoln, NE 68506, USA", "postal": "68506"}, "bbox": {"northeast": [40.7856329802915, -96.6237212197085], "southwest": [40.7829350197085, -96.6264191802915]}}, {"geometry": {"type": "Point", "coordinates": [-96.708603, 40.799234]}, "type": "Feature", "properties": {"city": "Lincoln", "neighborhood": "South Salt Creek", "country": "US", "case_no": "B2-027510", "county": "Lancaster County", "state": "NE", "street": "A St", "address": "A Street & South 9th Street, Lincoln, NE 68502, USA", "postal": "68502"}, "bbox": {"northeast": [40.8005689802915, -96.7072320197085], "southwest": [40.7978710197085, -96.7099299802915]}}, {"geometry": {"type": "Point", "coordinates": [-96.656883, 40.769779]}, "type": "Feature", "properties": {"city": "Lincoln", "country": "US", "case_no": "B2-036966", "county": "Lancaster County", "state": "NE", "street": "Pioneers Blvd", "address": "Pioneers Boulevard & South 45th Street, Lincoln, NE 68506, USA", "postal": "68506"}, "bbox": {"northeast": [40.7711365802915, -96.65662171970848], "southwest": [40.7684386197085, -96.6593196802915]}}, {"geometry": {"type": "Point", "coordinates": [-96.606016, 40.820726]}, "type": "Feature", "properties": {"city": "Lincoln", "neighborhood": "Meadowlane", "country": "US", "case_no": "B2-038370", "county": "Lancaster County", "state": "NE", "street": "N 84th St", "address": "North 84th Street & Vine Street, Lincoln, NE 68505, USA", "postal": "68505"}, "bbox": {"northeast": [40.8220584802915, -96.6045764197085], "southwest": [40.8193605197085, -96.6072743802915]}}, {"geometry": {"type": "Point", "coordinates": [-96.6533356, 40.7384864]}, "type": "Feature", "properties": {"city": "Lincoln", "country": "US", "case_no": "B5-048423", "county": "Lancaster County", "state": "NE", "street": "Beaver Creek Ln", "address": "Beaver Creek Lane & Buffalo Creek Road, Lincoln, NE 68516, USA", "postal": "68516"}, "bbox": {"northeast": [40.7398353802915, -96.65198661970851], "southwest": [40.7371374197085, -96.65468458029152]}}, {"geometry": {"type": "Point", "coordinates": [-96.705561, 40.809543]}, "type": "Feature", "properties": {"city": "Lincoln", "neighborhood": "Downtown", "country": "US", "case_no": "B4-039239", "county": "Lancaster County", "state": "NE", "street": "L St", "address": "L Street & South 11th Street, Lincoln, NE 68508, USA", "postal": "68508"}, "bbox": {"northeast": [40.81165498029151, -96.70419401970851], "southwest": [40.80895701970851, -96.70689198029152]}}, {"geometry": {"type": "Point", "coordinates": [-96.68231, 40.814312]}, "type": "Feature", "properties": {"city": "Lincoln", "neighborhood": "Woods Park", "country": "US", "case_no": "B3-048193", "county": "Lancaster County", "state": "NE", "street": "E O St", "address": "East O Street & North 27th Street, Lincoln, NE 68503, USA", "postal": "68503"}, "bbox": {"northeast": [40.8149319802915, -96.6809120197085], "southwest": [40.8122340197085, -96.68360998029151]}}, {"geometry": {"type": "Point", "coordinates": [-96.665371, 40.845295]}, "type": "Feature", "properties": {"city": "Lincoln", "neighborhood": "Sunset Acres", "country": "US", "case_no": "B4-068025", "county": "Lancaster County", "state": "NE", "street": "Cornhusker Hwy", "address": "3820 Cornhusker Highway, Lincoln, NE 68504, USA", "postal": "68504", "housenumber": "3820"}, "bbox": {"northeast": [40.8473816802915, -96.66364981970848], "southwest": [40.8446837197085, -96.6663477802915]}}, {"geometry": {"type": "Point", "coordinates": [-96.708501, 40.814344]}, "type": "Feature", "properties": {"city": "Lincoln", "neighborhood": "Downtown", "country": "US", "case_no": "B3-078062", "county": "Lancaster County", "state": "NE", "street": "E O St", "address": "East O Street & South 10th Street, Lincoln, NE 68508, USA", "postal": "68508"}, "bbox": {"northeast": [40.8149754802915, -96.7056515197085], "southwest": [40.8122775197085, -96.7083494802915]}}, {"geometry": {"type": "Point", "coordinates": [-96.68512, 40.739538]}, "type": "Feature", "properties": {"city": "Lincoln", "country": "US", "case_no": "B4-092493", "county": "Lancaster County", "state": "NE", "street": "Pine Lake Rd", "address": "Pine Lake Road & South 27th Street, Lincoln, NE 68516, USA", "postal": "68516"}, "bbox": {"northeast": [40.7409874802915, -96.68108461970849], "southwest": [40.7382895197085, -96.68378258029149]}}, {"geometry": {"type": "Point", "coordinates": [-96.68260099999999, 40.827019]}, "type": "Feature", "properties": {"city": "Lincoln", "neighborhood": "Clinton", "country": "US", "case_no": "B4-086290", "county": "Lancaster County", "state": "NE", "street": "N 27th St", "address": "1345 North 27th Street, Lincoln, NE 68503, USA", "postal": "68503", "housenumber": "1345"}, "bbox": {"northeast": [40.8283679802915, -96.6812520197085], "southwest": [40.8256700197085, -96.6839499802915]}}, {"geometry": {"type": "Point", "coordinates": [-96.653034, 40.755294]}, "type": "Feature", "properties": {"city": "Lincoln", "country": "US", "case_no": "B4-071346", "county": "Lancaster County", "state": "NE", "street": "Old Cheney Rd", "address": "4800 Old Cheney Road, Lincoln, NE 68516, USA", "postal": "68516", "housenumber": "4800"}, "bbox": {"northeast": [40.75689218029151, -96.65214821970848], "southwest": [40.75419421970851, -96.65484618029149]}}, {"geometry": {"type": "Point", "coordinates": [-96.7052197, 40.8125181]}, "type": "Feature", "properties": {"city": "Lincoln", "neighborhood": "Downtown", "country": "US", "case_no": "B4-065578", "county": "Lancaster County", "state": "NE", "street": "N St", "address": "1120 N Street, Lincoln, NE 68508, USA", "postal": "68508", "housenumber": "1120"}, "bbox": {"northeast": [40.81386013029149, -96.70387076970849], "southwest": [40.8111621697085, -96.70656873029151]}}, {"geometry": {"type": "Point", "coordinates": [-96.704269, 40.791827]}, "type": "Feature", "properties": {"city": "Lincoln", "neighborhood": "Irvingdale", "country": "US", "case_no": "B4-090598", "county": "Lancaster County", "state": "NE", "street": "South St", "address": "1001 South Street, Lincoln, NE 68502, USA", "postal": "68502", "housenumber": "1001"}, "bbox": {"northeast": [40.7924865802915, -96.70504371970848], "southwest": [40.7897886197085, -96.7077416802915]}}, {"geometry": {"type": "Point", "coordinates": [-96.691942, 40.791695]}, "type": "Feature", "properties": {"city": "Lincoln", "neighborhood": "Near South", "country": "US", "case_no": "B4-088935", "county": "Lancaster County", "state": "NE", "street": "South St", "address": "South Street & South 20th Street, Lincoln, NE 68502, USA", "postal": "68502"}, "bbox": {"northeast": [40.7930668802915, -96.6906216197085], "southwest": [40.7903689197085, -96.6933195802915]}}, {"geometry": {"type": "Point", "coordinates": [-96.685467, 40.813534]}, "type": "Feature", "properties": {"city": "Lincoln", "neighborhood": "Woods Park", "country": "US", "case_no": "B4-062250", "county": "Lancaster County", "state": "NE", "street": "O St", "address": "2422 O Street, Lincoln, NE 68510, USA", "postal": "68510", "housenumber": "2422"}, "bbox": {"northeast": [40.8149112802915, -96.6850237697085], "southwest": [40.8122133197085, -96.68772173029151]}}, {"geometry": {"type": "Point", "coordinates": [-96.682417, 40.800284]}, "type": "Feature", "properties": {"city": "Lincoln", "neighborhood": "Near South", "country": "US", "case_no": "B3-071347", "county": "Lancaster County", "state": "NE", "street": "S 27th St", "address": "South 27th Street & C Street, Lincoln, NE 68502, USA", "postal": "68502"}, "bbox": {"northeast": [40.8027689802915, -96.68110601970848], "southwest": [40.8000710197085, -96.6838039802915]}}, {"geometry": {"type": "Point", "coordinates": [-96.664792, 40.75532]}, "type": "Feature", "properties": {"city": "Lincoln", "country": "US", "case_no": "B3-038838", "county": "Lancaster County", "state": "NE", "street": "Old Cheney Rd", "address": "3901 Old Cheney Road, Lincoln, NE 68516, USA", "postal": "68516", "housenumber": "3901"}, "bbox": {"northeast": [40.75616288029149, -96.6627309197085], "southwest": [40.7534649197085, -96.6654288802915]}}, {"geometry": {"type": "Point", "coordinates": [-96.638316, 40.857067]}, "type": "Feature", "properties": {"city": "Lincoln", "neighborhood": "Havelock", "country": "US", "case_no": "B4-024133", "county": "Lancaster County", "state": "NE", "street": "Havelock Ave", "address": "Havelock Avenue & North 61st Street, Lincoln, NE 68507, USA", "postal": "68507"}, "bbox": {"northeast": [40.85840278029151, -96.63583001970851], "southwest": [40.85570481970851, -96.63852798029151]}}, {"geometry": {"type": "Point", "coordinates": [-96.6059, 40.811867]}, "type": "Feature", "properties": {"city": "Lincoln", "country": "US", "case_no": "B4-049286", "county": "Lancaster County", "state": "NE", "street": "S 84th St", "address": "222 South 84th Street, Lincoln, NE 68510, USA", "postal": "68510", "housenumber": "222"}, "bbox": {"northeast": [40.81271188029149, -96.60245291970848], "southwest": [40.8100139197085, -96.6051508802915]}}, {"geometry": {"type": "Point", "coordinates": [-96.69536699999999, 40.802499]}, "type": "Feature", "properties": {"city": "Lincoln", "neighborhood": "Near South", "country": "US", "case_no": "B5-022230", "county": "Lancaster County", "state": "NE", "street": "D St", "address": "D Street & South 18th Street, Lincoln, NE 68502, USA", "postal": "68502"}, "bbox": {"northeast": [40.80384798029149, -96.69401801970848], "southwest": [40.80115001970849, -96.6967159802915]}}, {"geometry": {"type": "Point", "coordinates": [-96.696664, 40.79728]}, "type": "Feature", "properties": {"city": "Lincoln", "neighborhood": "Near South", "country": "US", "case_no": "B3-070151", "county": "Lancaster County", "state": "NE", "street": "S 17th St", "address": "South 17th Street & Garfield Street, Lincoln, NE 68502, USA", "postal": "68502"}, "bbox": {"northeast": [40.7984631802915, -96.69532571970849], "southwest": [40.7957652197085, -96.69802368029151]}}, {"geometry": {"type": "Point", "coordinates": [-96.701173, 40.81282]}, "type": "Feature", "properties": {"city": "Lincoln", "neighborhood": "Downtown", "country": "US", "case_no": "B4-090913", "county": "Lancaster County", "state": "NE", "street": "E O St", "address": "East O Street & North 14th Street, Lincoln, NE 68508, USA", "postal": "68508"}, "bbox": {"northeast": [40.8149579802915, -96.69981261970848], "southwest": [40.8122600197085, -96.70251058029149]}}, {"geometry": {"type": "Point", "coordinates": [-96.706929, 40.826151]}, "type": "Feature", "properties": {"city": "Lincoln", "neighborhood": "North Bottoms", "country": "US", "case_no": "B3-058476", "county": "Lancaster County", "state": "NE", "street": "N 10th St", "address": "North 10th Street & New Hampshire Street, Lincoln, NE 68508, USA", "postal": "68508"}, "bbox": {"northeast": [40.8279849802915, -96.70558501970848], "southwest": [40.8252870197085, -96.7082829802915]}}, {"geometry": {"type": "Point", "coordinates": [-96.71185899999999, 40.8147633]}, "type": "Feature", "properties": {"city": "Lincoln", "country": "US", "case_no": "B4-064192", "county": "Lancaster County", "state": "NE", "street": "Canopy St", "address": "Canopy Street & P Street, Lincoln, NE 68501, USA", "postal": "68501"}, "bbox": {"northeast": [40.8161122802915, -96.71051001970848], "southwest": [40.8134143197085, -96.71320798029149]}}, {"geometry": {"type": "Point", "coordinates": [-96.720377, 40.837111]}, "type": "Feature", "properties": {"city": "Lincoln", "neighborhood": "West Lincoln", "country": "US", "case_no": "B4-093793", "county": "Lancaster County", "state": "NE", "street": "N 1st St", "address": "North 1st Street & Dawes Avenue, Lincoln, NE 68521, USA", "postal": "68521"}, "bbox": {"northeast": [40.83845028029151, -96.71909401970848], "southwest": [40.83575231970851, -96.72179198029148]}}, {"geometry": {"type": "Point", "coordinates": [-96.705505, 40.815352]}, "type": "Feature", "properties": {"city": "Lincoln", "neighborhood": "Downtown", "country": "US", "case_no": "B4-092887", "county": "Lancaster County", "state": "NE", "street": "Q St", "address": "University of Nebraska-Lincoln, Q Street & North 11th Street, Lincoln, NE 68508, USA", "postal": "68508"}, "bbox": {"northeast": [40.8172039802915, -96.7041457197085], "southwest": [40.8145060197085, -96.70684368029151]}}, {"geometry": {"type": "Point", "coordinates": [-96.687374, 40.813537]}, "type": "Feature", "properties": {"city": "Lincoln", "neighborhood": "Hawley", "country": "US", "case_no": "B4-006518", "county": "Lancaster County", "state": "NE", "street": "P St", "address": "P Street & North 24th Street, Lincoln, NE 68503, USA", "postal": "68503"}, "bbox": {"northeast": [40.8160269802915, -96.68527601970848], "southwest": [40.8133290197085, -96.6879739802915]}}, {"geometry": {"type": "Point", "coordinates": [-96.672853, 40.827551]}, "type": "Feature", "properties": {"city": "Lincoln", "neighborhood": "Clinton", "country": "US", "case_no": "B3-064234", "county": "Lancaster County", "state": "NE", "street": "Holdrege St", "address": "University of Nebraska-Lincoln, University of Nebraska-Lincoln: East Campus, Holdrege Street & North 33rd Street, Lincoln, NE 68503, USA", "postal": "68503"}, "bbox": {"northeast": [40.8293699802915, -96.67151201970849], "southwest": [40.8266720197085, -96.6742099802915]}}, {"geometry": {"type": "Point", "coordinates": [-96.69826, 40.804132]}, "type": "Feature", "properties": {"city": "Lincoln", "neighborhood": "Near South", "country": "US", "case_no": "B4-049373", "county": "Lancaster County", "state": "NE", "street": "S 16th St", "address": "South 16th Street & F Street, Lincoln, NE 68508, USA", "postal": "68508"}, "bbox": {"northeast": [40.8060861802915, -96.6968990197085], "southwest": [40.8033882197085, -96.6995969802915]}}, {"geometry": {"type": "Point", "coordinates": [-96.696208, 40.791701]}, "type": "Feature", "properties": {"city": "Lincoln", "neighborhood": "Near South", "country": "US", "case_no": "B3-091933", "county": "Lancaster County", "state": "NE", "street": "South St", "address": "South Street & South 18th Street, Lincoln, NE 68502, USA", "postal": "68502"},